{"type": "FeatureCollection", "features": [{"type": "Feature", "geometry": {"type": "Point", "coordinates": [2.88569, 50.85114]}, "properties": {"name": "Cornelis de Haan", "role": "soldier", "location": "Ieper", "country": "BE"}}, {"type": "Feature", "geometry": {"type": "Point", "coordinates": [6.12083, 52.7875]}, "properties": {"name": "Willem Roeloffsz", "role": "soldier", "location": "Steenwijk", "country": "NL"}}, {"type": "Feature", "geometry": {"type": "Point", "coordinates": [10.50997, 52.43435]}, "properties": {"name": "Jan Steffens", "role": "sailor", "location": "Ribbesb\u00fcttel", "country": "DE"}}, {"type": "Feature", "geometry": {"type": "Point", "coordinates": [-3.19648, 55.95206]}, "properties": {"name": "Daniel Macconnel", "role": "soldier", "location": "Edinburgh", "country": "GB"}}, {"type": "Feature", "geometry": {"type": "Point", "coordinates": [6.11806, 51.8625]}, "properties": {"name": "Jacob van Mirbeeck", "role": "soldier", "location": "Lobith", "country": "NL"}}, {"type": "Feature", "geometry": {"type": "Point", "coordinates": [6.56667, 53.21917]}, "properties": {"name": "Haije Jarcks", "role": "sailor", "location": "Groningen (stad)", "country": "NL"}}, {"type": "Feature", "geometry": {"type": "Point", "coordinates": [4.47917, 51.9225]}, "properties": {"name": "Servaes Franssz", "role": "soldier", "location": "Rotterdam", "country": "NL"}}, {"type": "Feature", "geometry": {"type": "Point", "coordinates": [4.29861, 52.07667]}, "properties": {"name": "Jan Jansz", "role": "soldier", "location": "Den Haag", "country": "NL"}}, {"type": "Feature", "geometry": {"type": "Point", "coordinates": [9.5586, 54.52156]}, "properties": {"name": "Pieter Dedelss", "role": "sailor", "location": "Schleswig", "country": "DE"}}, {"type": "Feature", "geometry": {"type": "Point", "coordinates": [4.67361, 51.81]}, "properties": {"name": "Huijbert Gerritsz", "role": "soldier", "location": "Dordrecht", "country": "NL"}}, {"type": "Feature", "geometry": {"type": "Point", "coordinates": [5.56749, 50.63373]}, "properties": {"name": "Pieter Lourenssz", "role": "soldier", "location": "Li\u00e8ge", "country": "DE"}}, {"type": "Feature", "geometry": {"type": "Point", "coordinates": [6.41858, 51.36432]}, "properties": {"name": "Hendrick Geurtssz", "role": "soldier", "location": "Kempen", "country": "DE"}}, {"type": "Feature", "geometry": {"type": "Point", "coordinates": [4.29861, 52.07667]}, "properties": {"name": "Mourits Vlamingh", "role": "soldier", "location": "Den Haag", "country": "NL"}}, {"type": "Feature", "geometry": {"type": "Point", "coordinates": [9.66667, 53.71667]}, "properties": {"name": "Adriaen Fredricxsz", "role": "sailor", "location": "Lieth", "country": "DE"}}, {"type": "Feature", "geometry": {"type": "Point", "coordinates": [9.05239, 54.4858]}, "properties": {"name": "Thomas Broersz", "role": "sailor", "location": "Husum", "country": "DE"}}, {"type": "Feature", "geometry": {"type": "Point", "coordinates": [5.12222, 52.09083]}, "properties": {"name": "Cornelis Albrechtsz", "role": "sailor", "location": "Utrecht", "country": "NL"}}, {"type": "Feature", "geometry": {"type": "Point", "coordinates": [4.63683, 52.38084]}, "properties": {"name": "David Barentssz", "role": "soldier", "location": "Haarlem", "country": "DE"}}, {"type": "Feature", "geometry": {"type": "Point", "coordinates": [-3.01204, 56.31876]}, "properties": {"name": "Jan Crijstie", "role": "soldier", "location": "Cupar", "country": "GB"}}, {"type": "Feature", "geometry": {"type": "Point", "coordinates": [7.0845, 51.17343]}, "properties": {"name": "Gooris Pietersz", "role": "soldier", "location": "Solingen", "country": "DE"}}, {"type": "Feature", "geometry": {"type": "Point", "coordinates": [-0.12574, 51.50853]}, "properties": {"name": "Jelis Jansz", "role": "soldier", "location": "London", "country": "GB"}}, {"type": "Feature", "geometry": {"type": "Point", "coordinates": [10.4234469, 51.0834196]}, "properties": {"name": "Everhardus Haecken", "role": "soldier", "location": "Duitsland (land)", "country": "DE"}}, {"type": "Feature", "geometry": {"type": "Point", "coordinates": [11.03283, 50.9787]}, "properties": {"name": "Casper Weijdeman", "role": "soldier", "location": "Erfurt", "country": "DE"}}, {"type": "Feature", "geometry": {"type": "Point", "coordinates": [4.63683, 52.38084]}, "properties": {"name": "Abraham Willemsz", "role": "sailor", "location": "Haarlem", "country": "DE"}}, {"type": "Feature", "geometry": {"type": "Point", "coordinates": [4.88969, 52.37403]}, "properties": {"name": "Joost Michielsz", "role": "sailor", "location": "Amsterdam", "country": "NL"}}, {"type": "Feature", "geometry": {"type": "Point", "coordinates": [5.54123, 53.18546]}, "properties": {"name": "Obbe Reijndertsz", "role": "sailor", "location": "Franeker", "country": "NL"}}, {"type": "Feature", "geometry": {"type": "Point", "coordinates": [-2.59665, 51.45523]}, "properties": {"name": "Symon Martensz", "role": "sailor", "location": "Bristol", "country": "GB"}}, {"type": "Feature", "geometry": {"type": "Point", "coordinates": [-0.12574, 51.50853]}, "properties": {"name": "Onfree Coddi", "role": "sailor", "location": "London", "country": "GB"}}, {"type": "Feature", "geometry": {"type": "Point", "coordinates": [10.01534, 53.57532]}, "properties": {"name": "Jochum Pietersz", "role": "sailor", "location": "Hamburg", "country": "DE"}}, {"type": "Feature", "geometry": {"type": "Point", "coordinates": [5.71924, 53.12865]}, "properties": {"name": "Liecke Lieckes", "role": "sailor", "location": "Mantgum", "country": "NL"}}, {"type": "Feature", "geometry": {"type": "Point", "coordinates": [6.4464, 51.01235]}, "properties": {"name": "Johan Fransz", "role": "soldier", "location": "Opherten", "country": "DE"}}, {"type": "Feature", "geometry": {"type": "Point", "coordinates": [6.56667, 53.21917]}, "properties": {"name": "Sieuwert Roeloffsz", "role": "sailor", "location": "Groningen (stad)", "country": "NL"}}, {"type": "Feature", "geometry": {"type": "Point", "coordinates": [9.40201, 56.45319]}, "properties": {"name": "Pieter Sael", "role": "sailor", "location": "Viborg", "country": "DK"}}, {"type": "Feature", "geometry": {"type": "Point", "coordinates": [13.73832, 51.05089]}, "properties": {"name": "Jacob Krohman", "role": "sailor", "location": "Dresden", "country": "DE"}}, {"type": "Feature", "geometry": {"type": "Point", "coordinates": [4.63683, 52.38084]}, "properties": {"name": "Adriaen Geleijnsz", "role": "soldier", "location": "Haarlem", "country": "DE"}}, {"type": "Feature", "geometry": {"type": "Point", "coordinates": [8.80777, 53.07516]}, "properties": {"name": "Johan Grabade", "role": "sailor", "location": "Bremen", "country": "DE"}}, {"type": "Feature", "geometry": {"type": "Point", "coordinates": [9.08939, 54.31058]}, "properties": {"name": "Carsten Didericksz", "role": "sailor", "location": "Schlichting", "country": "DE"}}, {"type": "Feature", "geometry": {"type": "Point", "coordinates": [4.88333, 52.085]}, "properties": {"name": "Cornelis Cornelisz", "role": "sailor", "location": "Woerden", "country": "NL"}}, {"type": "Feature", "geometry": {"type": "Point", "coordinates": [3.57361, 51.4425]}, "properties": {"name": "Jan Jacobss de Vos", "role": "sailor", "location": "Vlissingen", "country": "NL"}}, {"type": "Feature", "geometry": {"type": "Point", "coordinates": [4.63683, 52.38084]}, "properties": {"name": "Jan Janssz", "role": "soldier", "location": "Haarlem", "country": "DE"}}, {"type": "Feature", "geometry": {"type": "Point", "coordinates": [4.77596, 51.58656]}, "properties": {"name": "Jan Goosensz", "role": "soldier", "location": "Breda", "country": "NL"}}, {"type": "Feature", "geometry": {"type": "Point", "coordinates": [6.56667, 53.21917]}, "properties": {"name": "Pieter Sweed", "role": "sailor", "location": "Groningen (stad)", "country": "NL"}}, {"type": "Feature", "geometry": {"type": "Point", "coordinates": [10.4234469, 51.0834196]}, "properties": {"name": "Philipp Pasob", "role": "soldier", "location": "Duitsland (land)", "country": "DE"}}, {"type": "Feature", "geometry": {"type": "Point", "coordinates": [6.86806, 53.25]}, "properties": {"name": "Jan Barthelss", "role": "soldier", "location": "Siddeburen", "country": "NL"}}, {"type": "Feature", "geometry": {"type": "Point", "coordinates": [4.58194, 52.01167]}, "properties": {"name": "Jan Willemss", "role": "soldier", "location": "Zevenhuizen", "country": "NL"}}, {"type": "Feature", "geometry": {"type": "Point", "coordinates": [10.01534, 53.57532]}, "properties": {"name": "Jacob Janssz Springhoorn", "role": "soldier", "location": "Hamburg", "country": "DE"}}, {"type": "Feature", "geometry": {"type": "Point", "coordinates": [9.42576, 53.78893]}, "properties": {"name": "Jan Laurens", "role": "sailor", "location": "Gl\u00fcckstadt", "country": "DE"}}, {"type": "Feature", "geometry": {"type": "Point", "coordinates": [8.30635, 47.05048]}, "properties": {"name": "Jacob Scheffer", "role": "soldier", "location": "Lucerne", "country": "CH"}}, {"type": "Feature", "geometry": {"type": "Point", "coordinates": [6.56667, 53.21917]}, "properties": {"name": "Hans de Nover", "role": "soldier", "location": "Groningen (stad)", "country": "NL"}}, {"type": "Feature", "geometry": {"type": "Point", "coordinates": [6.26639, 51.4419]}, "properties": {"name": "Christoffel Kiver", "role": "soldier", "location": "Straelen", "country": "DE"}}, {"type": "Feature", "geometry": {"type": "Point", "coordinates": [10.41409, 53.2509]}, "properties": {"name": "Hans Ficken", "role": "soldier", "location": "L\u00fcneburg", "country": "DE"}}, {"type": "Feature", "geometry": {"type": "Point", "coordinates": [9.42576, 53.78893]}, "properties": {"name": "Marcus Jansz", "role": "sailor", "location": "Gl\u00fcckstadt", "country": "DE"}}, {"type": "Feature", "geometry": {"type": "Point", "coordinates": [4.88969, 52.37403]}, "properties": {"name": "Isaac Pietersz", "role": "soldier", "location": "Amsterdam", "country": "NL"}}, {"type": "Feature", "geometry": {"type": "Point", "coordinates": [6.87967, 51.43218]}, "properties": {"name": "Joost Kemmer", "role": "sailor", "location": "M\u00fclheim", "country": "DE"}}, {"type": "Feature", "geometry": {"type": "Point", "coordinates": [6.87967, 51.43218]}, "properties": {"name": "Joost Kemmer", "role": "sailor", "location": "M\u00fclheim", "country": "DE"}}, {"type": "Feature", "geometry": {"type": "Point", "coordinates": [8.873, 51.27561]}, "properties": {"name": "Ditmer Hampen", "role": "soldier", "location": "Korbach", "country": "DE"}}, {"type": "Feature", "geometry": {"type": "Point", "coordinates": [15.2066, 59.27412]}, "properties": {"name": "Niels Hansz", "role": "soldier", "location": "\u00d6rebro", "country": "SE"}}, {"type": "Feature", "geometry": {"type": "Point", "coordinates": [10.1327, 54.32054]}, "properties": {"name": "Jochem Roopstorp", "role": "sailor", "location": "Kiel", "country": "DE"}}, {"type": "Feature", "geometry": {"type": "Point", "coordinates": [4.88969, 52.37403]}, "properties": {"name": "Dirck Henninghsz", "role": "soldier", "location": "Amsterdam", "country": "NL"}}, {"type": "Feature", "geometry": {"type": "Point", "coordinates": [4.88969, 52.37403]}, "properties": {"name": "Jacob van Hemert", "role": "sailor", "location": "Amsterdam", "country": "NL"}}, {"type": "Feature", "geometry": {"type": "Point", "coordinates": [14.68333, 56.05]}, "properties": {"name": "Paulus Yongh", "role": "soldier", "location": "Listerlandet Peninsula", "country": "SE"}}, {"type": "Feature", "geometry": {"type": "Point", "coordinates": [10.68729, 53.86893]}, "properties": {"name": "Davit Crambeck", "role": "sailor", "location": "L\u00fcbeck", "country": "DE"}}, {"type": "Feature", "geometry": {"type": "Point", "coordinates": [5.99697, 53.32224]}, "properties": {"name": "Pieter Wijbrants", "role": "soldier", "location": "Dokkum", "country": "NL"}}, {"type": "Feature", "geometry": {"type": "Point", "coordinates": [6.12083, 52.7875]}, "properties": {"name": "Albert Jacobsz", "role": "soldier", "location": "Steenwijk", "country": "NL"}}, {"type": "Feature", "geometry": {"type": "Point", "coordinates": [8.86674, 54.93306]}, "properties": {"name": "Jacob Mighielsz", "role": "soldier", "location": "T\u00f8nder", "country": "DK"}}, {"type": "Feature", "geometry": {"type": "Point", "coordinates": [4.63683, 52.38084]}, "properties": {"name": "Jacob Claes", "role": "soldier", "location": "Haarlem", "country": "DE"}}, {"type": "Feature", "geometry": {"type": "Point", "coordinates": [-2.45289, 49.46963]}, "properties": {"name": "Albert Pietersz", "role": "sailor", "location": "Herm", "country": "GB"}}, {"type": "Feature", "geometry": {"type": "Point", "coordinates": [10.01534, 53.57532]}, "properties": {"name": "Luloff Reyts", "role": "soldier", "location": "Hamburg", "country": "DE"}}, {"type": "Feature", "geometry": {"type": "Point", "coordinates": [4.88969, 52.37403]}, "properties": {"name": "Abraham Jochumsz", "role": "sailor", "location": "Amsterdam", "country": "NL"}}, {"type": "Feature", "geometry": {"type": "Point", "coordinates": [5.24444, 51.81]}, "properties": {"name": "Christiaen Pieterssz", "role": "sailor", "location": "Zaltbommel", "country": "NL"}}, {"type": "Feature", "geometry": {"type": "Point", "coordinates": [12.07612, 57.48719]}, "properties": {"name": "Barent Gillisz", "role": "soldier", "location": "Kungsbacka", "country": "SE"}}, {"type": "Feature", "geometry": {"type": "Point", "coordinates": [5.99697, 53.32224]}, "properties": {"name": "Haije Jansz", "role": "sailor", "location": "Dokkum", "country": "NL"}}, {"type": "Feature", "geometry": {"type": "Point", "coordinates": [15.58342, 54.17565]}, "properties": {"name": "Christiaen Lichtvoet", "role": "sailor", "location": "Kolberg", "country": "PL"}}, {"type": "Feature", "geometry": {"type": "Point", "coordinates": [-8.62306, 52.66472]}, "properties": {"name": "Jan Borcq", "role": "sailor", "location": "Limerick", "country": "IE"}}, {"type": "Feature", "geometry": {"type": "Point", "coordinates": [9.5, 51.31667]}, "properties": {"name": "Hans Willem Anzelmij", "role": "soldier", "location": "Kassel", "country": "DE"}}, {"type": "Feature", "geometry": {"type": "Point", "coordinates": [4.29861, 52.07667]}, "properties": {"name": "Vechter Leenaertsz", "role": "sailor", "location": "Den Haag", "country": "NL"}}, {"type": "Feature", "geometry": {"type": "Point", "coordinates": [10.01534, 53.57532]}, "properties": {"name": "Dirck Baelcke", "role": "soldier", "location": "Hamburg", "country": "DE"}}, {"type": "Feature", "geometry": {"type": "Point", "coordinates": [20.51095, 54.70649]}, "properties": {"name": "Hans Asmussz", "role": "sailor", "location": "Kaliningrad", "country": "RU"}}, {"type": "Feature", "geometry": {"type": "Point", "coordinates": [12.25078, 57.10557]}, "properties": {"name": "Andries Govertsz Raven", "role": "soldier", "location": "Varberg", "country": "SE"}}, {"type": "Feature", "geometry": {"type": "Point", "coordinates": [8.80777, 53.07516]}, "properties": {"name": "Thomas Witt", "role": "sailor", "location": "Bremen", "country": "DE"}}, {"type": "Feature", "geometry": {"type": "Point", "coordinates": [12.6136, 56.03606]}, "properties": {"name": "Lourens Theunisz", "role": "soldier", "location": "Helsing\u00f8r", "country": "DK"}}, {"type": "Feature", "geometry": {"type": "Point", "coordinates": [6.12083, 52.7875]}, "properties": {"name": "Henrick Volckertsz", "role": "soldier", "location": "Steenwijk", "country": "NL"}}, {"type": "Feature", "geometry": {"type": "Point", "coordinates": [11.07752, 49.45421]}, "properties": {"name": "Hans Visscher", "role": "soldier", "location": "N\u00fcrnberg", "country": "DE"}}, {"type": "Feature", "geometry": {"type": "Point", "coordinates": [9.23422, 58.72057]}, "properties": {"name": "Sybrant Arentsz", "role": "sailor", "location": "Ris\u00f8r", "country": "NO"}}, {"type": "Feature", "geometry": {"type": "Point", "coordinates": [3.57361, 51.4425]}, "properties": {"name": "Frans Joosten", "role": "sailor", "location": "Vlissingen", "country": "NL"}}, {"type": "Feature", "geometry": {"type": "Point", "coordinates": [6.10222, 53.26316]}, "properties": {"name": "Jan Wijggerssz", "role": "sailor", "location": "Veenklooster", "country": "NL"}}, {"type": "Feature", "geometry": {"type": "Point", "coordinates": [5.6487, 53.28397]}, "properties": {"name": "Jan Janss", "role": "sailor", "location": "Gemeente Het Bildt", "country": "NL"}}, {"type": "Feature", "geometry": {"type": "Point", "coordinates": [8.21467, 53.14118]}, "properties": {"name": "Gerrit Janss", "role": "sailor", "location": "Oldenburg", "country": "DE"}}, {"type": "Feature", "geometry": {"type": "Point", "coordinates": [5.32415, 60.39299]}, "properties": {"name": "Luijcas Cornelis", "role": "soldier", "location": "Bergen", "country": "NO"}}, {"type": "Feature", "geometry": {"type": "Point", "coordinates": [9.23422, 58.72057]}, "properties": {"name": "Sander Jansz", "role": "soldier", "location": "Ris\u00f8r", "country": "NO"}}, {"type": "Feature", "geometry": {"type": "Point", "coordinates": [5.32415, 60.39299]}, "properties": {"name": "Axel Roelofs", "role": "soldier", "location": "Bergen", "country": "NO"}}, {"type": "Feature", "geometry": {"type": "Point", "coordinates": [10.65771, 59.43403]}, "properties": {"name": "Teunis Teunisz", "role": "soldier", "location": "Moss", "country": "NO"}}, {"type": "Feature", "geometry": {"type": "Point", "coordinates": [3.91944, 51.65]}, "properties": {"name": "Cornelis Pietersz", "role": "soldier", "location": "Zierikzee", "country": "NL"}}, {"type": "Feature", "geometry": {"type": "Point", "coordinates": [4.88969, 52.37403]}, "properties": {"name": "Wijbrant Dircxsz", "role": "soldier", "location": "Amsterdam", "country": "NL"}}, {"type": "Feature", "geometry": {"type": "Point", "coordinates": [10.68729, 53.86893]}, "properties": {"name": "Hans Peulman", "role": "sailor", "location": "L\u00fcbeck", "country": "DE"}}, {"type": "Feature", "geometry": {"type": "Point", "coordinates": [4.47917, 51.9225]}, "properties": {"name": "Adriaen Adriaenssz", "role": "sailor", "location": "Rotterdam", "country": "NL"}}, {"type": "Feature", "geometry": {"type": "Point", "coordinates": [6.56667, 53.21917]}, "properties": {"name": "Philip Jeldrick", "role": "soldier", "location": "Groningen (stad)", "country": "NL"}}, {"type": "Feature", "geometry": {"type": "Point", "coordinates": [10.40762, 59.26754]}, "properties": {"name": "Hans Andries", "role": "sailor", "location": "T\u00f8nsberg", "country": "NO"}}, {"type": "Feature", "geometry": {"type": "Point", "coordinates": [6.06389, 52.475]}, "properties": {"name": "Gerrit Abrahamsz", "role": "sailor", "location": "Hattem", "country": "NL"}}, {"type": "Feature", "geometry": {"type": "Point", "coordinates": [10.40762, 59.26754]}, "properties": {"name": "Roelof Pieters", "role": "sailor", "location": "T\u00f8nsberg", "country": "NO"}}, {"type": "Feature", "geometry": {"type": "Point", "coordinates": [9.74876, 59.00071]}, "properties": {"name": "Abraham Jansz", "role": "soldier", "location": "Langesund", "country": "NO"}}, {"type": "Feature", "geometry": {"type": "Point", "coordinates": [11.58218, 57.88699]}, "properties": {"name": "Andries Jans", "role": "soldier", "location": "Marstrand", "country": "SE"}}, {"type": "Feature", "geometry": {"type": "Point", "coordinates": [10.01534, 53.57532]}, "properties": {"name": "Robbert Sieuwertsz", "role": "sailor", "location": "Hamburg", "country": "DE"}}, {"type": "Feature", "geometry": {"type": "Point", "coordinates": [8.11667, 53.56667]}, "properties": {"name": "Jan Gerritssz", "role": "sailor", "location": "Kniphausersiel", "country": "DE"}}, {"type": "Feature", "geometry": {"type": "Point", "coordinates": [-0.33525, 53.7446]}, "properties": {"name": "Willem Honter", "role": "soldier", "location": "Kingston upon Hull", "country": "GB"}}, {"type": "Feature", "geometry": {"type": "Point", "coordinates": [7.3561, 53.67066]}, "properties": {"name": "Henrick Henricksz", "role": "sailor", "location": "Ne\u00dfmersiel", "country": "DE"}}, {"type": "Feature", "geometry": {"type": "Point", "coordinates": [9.23422, 58.72057]}, "properties": {"name": "Samuel Andriesz", "role": "sailor", "location": "Ris\u00f8r", "country": "NO"}}, {"type": "Feature", "geometry": {"type": "Point", "coordinates": [4.94076, 51.65594]}, "properties": {"name": "Ariaen Pieterss", "role": "sailor", "location": "'s Gravenmoer", "country": "NL"}}, {"type": "Feature", "geometry": {"type": "Point", "coordinates": [-0.12574, 51.50853]}, "properties": {"name": "Matheus Hill", "role": "sailor", "location": "London", "country": "GB"}}, {"type": "Feature", "geometry": {"type": "Point", "coordinates": [6.36658, 51.28744]}, "properties": {"name": "Jan Martensz", "role": "sailor", "location": "S\u00fcchteln", "country": "DE"}}, {"type": "Feature", "geometry": {"type": "Point", "coordinates": [-2.83333, 48.16667]}, "properties": {"name": "Jaques Doijsson", "role": "sailor", "location": "Bretagne", "country": "FR"}}, {"type": "Feature", "geometry": {"type": "Point", "coordinates": [4.65694, 52.48333]}, "properties": {"name": "Willem Claess Blaeuboer", "role": "sailor", "location": "Beverwijk", "country": "NL"}}, {"type": "Feature", "geometry": {"type": "Point", "coordinates": [12.56553, 55.67594]}, "properties": {"name": "Barent Cornelisz", "role": "soldier", "location": "Copenhagen", "country": "DK"}}, {"type": "Feature", "geometry": {"type": "Point", "coordinates": [12.56553, 55.67594]}, "properties": {"name": "Barent Cornelisz", "role": "soldier", "location": "Copenhagen", "country": "DK"}}, {"type": "Feature", "geometry": {"type": "Point", "coordinates": [12.56553, 55.67594]}, "properties": {"name": "Barent Cornelissz", "role": "soldier", "location": "Copenhagen", "country": "DK"}}, {"type": "Feature", "geometry": {"type": "Point", "coordinates": [5.33781, 50.93106]}, "properties": {"name": "Daniel Danielsz", "role": "sailor", "location": "Hasselt", "country": "BE"}}, {"type": "Feature", "geometry": {"type": "Point", "coordinates": [10.39506, 63.43049]}, "properties": {"name": "Dirck Bock", "role": "soldier", "location": "Trondheim", "country": "NO"}}, {"type": "Feature", "geometry": {"type": "Point", "coordinates": [5.53176, 53.06555]}, "properties": {"name": "Sijtgen Adriaensz", "role": "sailor", "location": "Bolsward", "country": "NL"}}, {"type": "Feature", "geometry": {"type": "Point", "coordinates": [7.466, 51.51494]}, "properties": {"name": "Harmen Bruggestrate", "role": "soldier", "location": "Dortmund", "country": "DE"}}, {"type": "Feature", "geometry": {"type": "Point", "coordinates": [5.12222, 52.09083]}, "properties": {"name": "Cornelis Joonasz", "role": "sailor", "location": "Utrecht", "country": "NL"}}, {"type": "Feature", "geometry": {"type": "Point", "coordinates": [4.89167, 52.60083]}, "properties": {"name": "Jan Jansz", "role": "sailor", "location": "Schermerhorn", "country": "NL"}}, {"type": "Feature", "geometry": {"type": "Point", "coordinates": [10.65771, 59.43403]}, "properties": {"name": "Hans Jurriensz", "role": "soldier", "location": "Moss", "country": "NO"}}, {"type": "Feature", "geometry": {"type": "Point", "coordinates": [4.84861, 51.9475]}, "properties": {"name": "Jan Jansz", "role": "sailor", "location": "Schoonhoven", "country": "NL"}}, {"type": "Feature", "geometry": {"type": "Point", "coordinates": [9.8554, 51.34103]}, "properties": {"name": "Hans Dreijsbach", "role": "soldier", "location": "Witzenhausen", "country": "DE"}}, {"type": "Feature", "geometry": {"type": "Point", "coordinates": [18.0649, 59.33258]}, "properties": {"name": "Abraham Jochemse Meijer", "role": "soldier", "location": "Stockholm", "country": "SE"}}, {"type": "Feature", "geometry": {"type": "Point", "coordinates": [10.01534, 53.57532]}, "properties": {"name": "Jan Nohee", "role": "soldier", "location": "Hamburg", "country": "DE"}}, {"type": "Feature", "geometry": {"type": "Point", "coordinates": [11.43435, 51.29886]}, "properties": {"name": "Davidt Ewilck", "role": "soldier", "location": "Ro\u00dfleben", "country": "DE"}}, {"type": "Feature", "geometry": {"type": "Point", "coordinates": [4.63683, 52.38084]}, "properties": {"name": "Jan Jansz", "role": "sailor", "location": "Haarlem", "country": "DE"}}, {"type": "Feature", "geometry": {"type": "Point", "coordinates": [14.55302, 53.42894]}, "properties": {"name": "Jochum Martensz", "role": "sailor", "location": "Szczecin", "country": "PL"}}, {"type": "Feature", "geometry": {"type": "Point", "coordinates": [6.15293, 53.27695]}, "properties": {"name": "Jacob Cornelisz", "role": "soldier", "location": "Kollum", "country": "NL"}}, {"type": "Feature", "geometry": {"type": "Point", "coordinates": [4.63683, 52.38084]}, "properties": {"name": "Thijs Lamberts", "role": "soldier", "location": "Haarlem", "country": "DE"}}, {"type": "Feature", "geometry": {"type": "Point", "coordinates": [4.88969, 52.37403]}, "properties": {"name": "Harmen Taeckis", "role": "soldier", "location": "Amsterdam", "country": "NL"}}, {"type": "Feature", "geometry": {"type": "Point", "coordinates": [9.42576, 53.78893]}, "properties": {"name": "Gerrit Pietersz", "role": "sailor", "location": "Gl\u00fcckstadt", "country": "DE"}}, {"type": "Feature", "geometry": {"type": "Point", "coordinates": [-0.12574, 51.50853]}, "properties": {"name": "Charles Clerck", "role": "soldier", "location": "London", "country": "GB"}}, {"type": "Feature", "geometry": {"type": "Point", "coordinates": [5.42917, 51.88667]}, "properties": {"name": "Jan Claasz", "role": "soldier", "location": "Tiel", "country": "NL"}}, {"type": "Feature", "geometry": {"type": "Point", "coordinates": [-4.03333, 55.76667]}, "properties": {"name": "Jacob Wets", "role": "sailor", "location": "Hamilton", "country": "GB"}}, {"type": "Feature", "geometry": {"type": "Point", "coordinates": [-2.22001, 52.18935]}, "properties": {"name": "Thomas Evans", "role": "soldier", "location": "Worcester", "country": "GB"}}, {"type": "Feature", "geometry": {"type": "Point", "coordinates": [-0.12574, 51.50853]}, "properties": {"name": "Joris Jansz", "role": "sailor", "location": "London", "country": "GB"}}, {"type": "Feature", "geometry": {"type": "Point", "coordinates": [-3.60364, 55.97639]}, "properties": {"name": "Willem Barcklaij", "role": "soldier", "location": "Linlithgow", "country": "GB"}}, {"type": "Feature", "geometry": {"type": "Point", "coordinates": [5.13889, 51.73417]}, "properties": {"name": "Jan Norbari", "role": "soldier", "location": "Heusden", "country": "NL"}}, {"type": "Feature", "geometry": {"type": "Point", "coordinates": [-2.97489, 56.46913]}, "properties": {"name": "Davidt Barckle", "role": "soldier", "location": "Dundee", "country": "GB"}}, {"type": "Feature", "geometry": {"type": "Point", "coordinates": [5.52672, 51.73362]}, "properties": {"name": "Jacob Sanders", "role": "soldier", "location": "Heesch", "country": "NL"}}, {"type": "Feature", "geometry": {"type": "Point", "coordinates": [4.88969, 52.37403]}, "properties": {"name": "Dirck Resius", "role": "sailor", "location": "Amsterdam", "country": "NL"}}, {"type": "Feature", "geometry": {"type": "Point", "coordinates": [7.61267, 53.64866]}, "properties": {"name": "Harmen Volckerts", "role": "sailor", "location": "Esens", "country": "DE"}}, {"type": "Feature", "geometry": {"type": "Point", "coordinates": [12.6136, 56.03606]}, "properties": {"name": "Knoet Thomessen", "role": "soldier", "location": "Helsing\u00f8r", "country": "DK"}}, {"type": "Feature", "geometry": {"type": "Point", "coordinates": [4.9378, 50.80745]}, "properties": {"name": "Wouter Lesslaer", "role": "sailor", "location": "Tienen", "country": "BE"}}, {"type": "Feature", "geometry": {"type": "Point", "coordinates": [10.4234469, 51.0834196]}, "properties": {"name": "Hans Jurgen Gerbers", "role": "soldier", "location": "Duitsland (land)", "country": "DE"}}, {"type": "Feature", "geometry": {"type": "Point", "coordinates": [3.57361, 51.4425]}, "properties": {"name": "Jacob Henricksz", "role": "sailor", "location": "Vlissingen", "country": "NL"}}, {"type": "Feature", "geometry": {"type": "Point", "coordinates": [10.01534, 53.57532]}, "properties": {"name": "Jan Jacobssz", "role": "soldier", "location": "Hamburg", "country": "DE"}}, {"type": "Feature", "geometry": {"type": "Point", "coordinates": [4.88969, 52.37403]}, "properties": {"name": "Jonas Bos", "role": "sailor", "location": "Amsterdam", "country": "NL"}}, {"type": "Feature", "geometry": {"type": "Point", "coordinates": [12.14049, 54.0887]}, "properties": {"name": "Hans Bruijdegom", "role": "sailor", "location": "Rostock", "country": "DE"}}, {"type": "Feature", "geometry": {"type": "Point", "coordinates": [4.74861, 52.63167]}, "properties": {"name": "Balthus Lucassz", "role": "sailor", "location": "Alkmaar", "country": "NL"}}, {"type": "Feature", "geometry": {"type": "Point", "coordinates": [11.58218, 57.88699]}, "properties": {"name": "Beerent Houtsen", "role": "sailor", "location": "Marstrand", "country": "SE"}}, {"type": "Feature", "geometry": {"type": "Point", "coordinates": [5.23611, 52.0525]}, "properties": {"name": "Jan Claesz", "role": "soldier", "location": "Odijk", "country": "NL"}}, {"type": "Feature", "geometry": {"type": "Point", "coordinates": [5.73521, 58.85244]}, "properties": {"name": "Albert Andries", "role": "soldier", "location": "Sandnes", "country": "NO"}}, {"type": "Feature", "geometry": {"type": "Point", "coordinates": [10.68729, 53.86893]}, "properties": {"name": "Jacob Helm", "role": "soldier", "location": "L\u00fcbeck", "country": "DE"}}, {"type": "Feature", "geometry": {"type": "Point", "coordinates": [5.10694, 52.23917]}, "properties": {"name": "Jacob Michielssz", "role": "soldier", "location": "Kortenhoef", "country": "NL"}}, {"type": "Feature", "geometry": {"type": "Point", "coordinates": [7.20639, 53.59552]}, "properties": {"name": "Fredrick Fredericxsz", "role": "soldier", "location": "Norden", "country": "DE"}}, {"type": "Feature", "geometry": {"type": "Point", "coordinates": [-3.5, 52.5]}, "properties": {"name": "Willem Jansz", "role": "soldier", "location": "Wales", "country": "GB"}}, {"type": "Feature", "geometry": {"type": "Point", "coordinates": [4.40346, 51.21989]}, "properties": {"name": "Michiel Michielsz", "role": "sailor", "location": "Antwerpen", "country": "BE"}}, {"type": "Feature", "geometry": {"type": "Point", "coordinates": [6.41858, 51.36432]}, "properties": {"name": "Pieter Hoedemaker", "role": "soldier", "location": "Kempen", "country": "DE"}}, {"type": "Feature", "geometry": {"type": "Point", "coordinates": [5.53176, 53.06555]}, "properties": {"name": "Jelmer Pietersen", "role": "soldier", "location": "Bolsward", "country": "NL"}}, {"type": "Feature", "geometry": {"type": "Point", "coordinates": [5.99697, 53.32224]}, "properties": {"name": "Johannes Minnes", "role": "sailor", "location": "Dokkum", "country": "NL"}}, {"type": "Feature", "geometry": {"type": "Point", "coordinates": [12.37129, 51.33962]}, "properties": {"name": "Jeremias Ruijter", "role": "soldier", "location": "Leipzig", "country": "DE"}}, {"type": "Feature", "geometry": {"type": "Point", "coordinates": [6.13865, 51.78826]}, "properties": {"name": "Henrick Heslinck", "role": "soldier", "location": "Kleve", "country": "DE"}}, {"type": "Feature", "geometry": {"type": "Point", "coordinates": [4.88969, 52.37403]}, "properties": {"name": "Anthonij Carelsz", "role": "sailor", "location": "Amsterdam", "country": "NL"}}, {"type": "Feature", "geometry": {"type": "Point", "coordinates": [-0.12574, 51.50853]}, "properties": {"name": "Margen Jonas", "role": "soldier", "location": "London", "country": "GB"}}, {"type": "Feature", "geometry": {"type": "Point", "coordinates": [7.20778, 53.36745]}, "properties": {"name": "Elle Luijts", "role": "soldier", "location": "Emden", "country": "DE"}}, {"type": "Feature", "geometry": {"type": "Point", "coordinates": [9.18596, 51.7175]}, "properties": {"name": "Jan Coene", "role": "sailor", "location": "Brakel", "country": "DE"}}, {"type": "Feature", "geometry": {"type": "Point", "coordinates": [4.75972, 52.25917]}, "properties": {"name": "Reijer Cornelisen", "role": "soldier", "location": "Aalsmeer", "country": "NL"}}, {"type": "Feature", "geometry": {"type": "Point", "coordinates": [-0.18651, 52.33049]}, "properties": {"name": "Olivier Haecken", "role": "soldier", "location": "Huntingdon", "country": "GB"}}, {"type": "Feature", "geometry": {"type": "Point", "coordinates": [-3.31843, 57.64947]}, "properties": {"name": "Joris Wats", "role": "soldier", "location": "Elgin", "country": "GB"}}, {"type": "Feature", "geometry": {"type": "Point", "coordinates": [5.29167, 52.70333]}, "properties": {"name": "Jan Gerritsen", "role": "soldier", "location": "Enkhuizen", "country": "NL"}}, {"type": "Feature", "geometry": {"type": "Point", "coordinates": [2.88569, 50.85114]}, "properties": {"name": "Christiaen Galandt", "role": "soldier", "location": "Ieper", "country": "BE"}}, {"type": "Feature", "geometry": {"type": "Point", "coordinates": [8.88483, 54.49351]}, "properties": {"name": "Pieter Jansz", "role": "sailor", "location": "Nordstrand", "country": "DE"}}, {"type": "Feature", "geometry": {"type": "Point", "coordinates": [4.47917, 51.9225]}, "properties": {"name": "Jan Verhoeven", "role": "sailor", "location": "Rotterdam", "country": "NL"}}, {"type": "Feature", "geometry": {"type": "Point", "coordinates": [4.88333, 52.085]}, "properties": {"name": "Lubbert Dircxs", "role": "soldier", "location": "Woerden", "country": "NL"}}, {"type": "Feature", "geometry": {"type": "Point", "coordinates": [-0.12574, 51.50853]}, "properties": {"name": "Robbert Hickman", "role": "sailor", "location": "London", "country": "GB"}}, {"type": "Feature", "geometry": {"type": "Point", "coordinates": [4.29167, 51.495]}, "properties": {"name": "Jan Jansz", "role": "soldier", "location": "Bergen op Zoom", "country": "NL"}}, {"type": "Feature", "geometry": {"type": "Point", "coordinates": [9.74876, 59.00071]}, "properties": {"name": "Cornelis Roelofsz", "role": "soldier", "location": "Langesund", "country": "NO"}}, {"type": "Feature", "geometry": {"type": "Point", "coordinates": [3.66667, 51.54833]}, "properties": {"name": "Johannes Sijmonsz", "role": "sailor", "location": "Veere", "country": "NL"}}, {"type": "Feature", "geometry": {"type": "Point", "coordinates": [5.3875, 52.155]}, "properties": {"name": "Jan Gerritsz", "role": "sailor", "location": "Amersfoort", "country": "NL"}}, {"type": "Feature", "geometry": {"type": "Point", "coordinates": [-1.49929, 50.70529]}, "properties": {"name": "Jan Thomassz", "role": "sailor", "location": "Yarmouth", "country": "GB"}}, {"type": "Feature", "geometry": {"type": "Point", "coordinates": [4.74861, 52.63167]}, "properties": {"name": "Willem Pietersz", "role": "sailor", "location": "Alkmaar", "country": "NL"}}, {"type": "Feature", "geometry": {"type": "Point", "coordinates": [9.02523, 54.33131]}, "properties": {"name": "Caspar Boerenheijm", "role": "soldier", "location": "Lunden", "country": "DE"}}, {"type": "Feature", "geometry": {"type": "Point", "coordinates": [5.12222, 52.09083]}, "properties": {"name": "Elias Franssz", "role": "soldier", "location": "Utrecht", "country": "NL"}}, {"type": "Feature", "geometry": {"type": "Point", "coordinates": [5.96111, 52.72667]}, "properties": {"name": "Claes Cornelis", "role": "sailor", "location": "Blokzijl", "country": "NL"}}, {"type": "Feature", "geometry": {"type": "Point", "coordinates": [7.20639, 53.59552]}, "properties": {"name": "Hendrick Edens", "role": "soldier", "location": "Norden", "country": "DE"}}, {"type": "Feature", "geometry": {"type": "Point", "coordinates": [8.21467, 53.14118]}, "properties": {"name": "Gerrit Meijnertsz", "role": "soldier", "location": "Oldenburg", "country": "DE"}}, {"type": "Feature", "geometry": {"type": "Point", "coordinates": [5.32415, 60.39299]}, "properties": {"name": "Hans Theunisz", "role": "sailor", "location": "Bergen", "country": "NO"}}, {"type": "Feature", "geometry": {"type": "Point", "coordinates": [4.88969, 52.37403]}, "properties": {"name": "Frans Jaspersz Hasaert", "role": "sailor", "location": "Amsterdam", "country": "NL"}}, {"type": "Feature", "geometry": {"type": "Point", "coordinates": [6.95, 50.93333]}, "properties": {"name": "Henrick Dortmondt", "role": "sailor", "location": "K\u00f6ln", "country": "DE"}}, {"type": "Feature", "geometry": {"type": "Point", "coordinates": [4.95972, 52.505]}, "properties": {"name": "Harman Jansz", "role": "soldier", "location": "Purmerend", "country": "NL"}}, {"type": "Feature", "geometry": {"type": "Point", "coordinates": [10.01534, 53.57532]}, "properties": {"name": "Barent Courtsz", "role": "soldier", "location": "Hamburg", "country": "DE"}}, {"type": "Feature", "geometry": {"type": "Point", "coordinates": [9.37465, 53.92253]}, "properties": {"name": "Marten Bartelsz van der Steur", "role": "sailor", "location": "Wilster", "country": "DE"}}, {"type": "Feature", "geometry": {"type": "Point", "coordinates": [3.61389, 51.5]}, "properties": {"name": "Lowijs de Bie", "role": "sailor", "location": "Middelburg", "country": "NL"}}, {"type": "Feature", "geometry": {"type": "Point", "coordinates": [-3.5, 52.5]}, "properties": {"name": "Robbert Willemsz", "role": "sailor", "location": "Wales", "country": "GB"}}, {"type": "Feature", "geometry": {"type": "Point", "coordinates": [9.06286, 51.20618]}, "properties": {"name": "Jacob Koldehoff", "role": "soldier", "location": "Waldeck", "country": "DE"}}, {"type": "Feature", "geometry": {"type": "Point", "coordinates": [7.89806, 53.57368]}, "properties": {"name": "Willem Henricxsz Cloppenburch", "role": "sailor", "location": "Jever", "country": "DE"}}, {"type": "Feature", "geometry": {"type": "Point", "coordinates": [-1.08271, 53.95763]}, "properties": {"name": "Raphael Metcalff", "role": "sailor", "location": "York", "country": "GB"}}, {"type": "Feature", "geometry": {"type": "Point", "coordinates": [7.20778, 53.36745]}, "properties": {"name": "Jurriaen Roelofsz", "role": "soldier", "location": "Emden", "country": "DE"}}, {"type": "Feature", "geometry": {"type": "Point", "coordinates": [9.02549, 54.11671]}, "properties": {"name": "Claes Jochumsz", "role": "soldier", "location": "Dithmarschen", "country": "DE"}}, {"type": "Feature", "geometry": {"type": "Point", "coordinates": [10.4234469, 51.0834196]}, "properties": {"name": "Koert Thijssz", "role": "soldier", "location": "Duitsland (land)", "country": "DE"}}, {"type": "Feature", "geometry": {"type": "Point", "coordinates": [8.68417, 50.11552]}, "properties": {"name": "Lourens Repstock", "role": "soldier", "location": "Frankfurt am Main", "country": "DE"}}, {"type": "Feature", "geometry": {"type": "Point", "coordinates": [18.0649, 59.33258]}, "properties": {"name": "Mathijs Martensz", "role": "soldier", "location": "Stockholm", "country": "SE"}}, {"type": "Feature", "geometry": {"type": "Point", "coordinates": [12.56553, 55.67594]}, "properties": {"name": "Cornelis Jansz", "role": "soldier", "location": "Copenhagen", "country": "DK"}}, {"type": "Feature", "geometry": {"type": "Point", "coordinates": [4.34878, 50.85045]}, "properties": {"name": "Pieter Block", "role": "soldier", "location": "Brussel", "country": "BE"}}, {"type": "Feature", "geometry": {"type": "Point", "coordinates": [4.34878, 50.85045]}, "properties": {"name": "Louis Schilders", "role": "soldier", "location": "Brussel", "country": "BE"}}, {"type": "Feature", "geometry": {"type": "Point", "coordinates": [10.01534, 53.57532]}, "properties": {"name": "Adriaen Rigaats", "role": "soldier", "location": "Hamburg", "country": "DE"}}, {"type": "Feature", "geometry": {"type": "Point", "coordinates": [13.0818, 54.30911]}, "properties": {"name": "Michiel Dircxsz", "role": "soldier", "location": "Stralsund", "country": "DE"}}, {"type": "Feature", "geometry": {"type": "Point", "coordinates": [-3.2765753, 54.7023545]}, "properties": {"name": "Jan Lambertsz Langhwaart", "role": "soldier", "location": "Groot-Brittanni\u00eb (land)", "country": "GB"}}, {"type": "Feature", "geometry": {"type": "Point", "coordinates": [7.74553, 48.58392]}, "properties": {"name": "Hans Michiel", "role": "soldier", "location": "Strasbourg", "country": "FR"}}, {"type": "Feature", "geometry": {"type": "Point", "coordinates": [5.68889, 50.84833]}, "properties": {"name": "Johan Leenarts", "role": "soldier", "location": "Maastricht", "country": "NL"}}, {"type": "Feature", "geometry": {"type": "Point", "coordinates": [12.99617, 51.56016]}, "properties": {"name": "Poul Langh", "role": "soldier", "location": "Torgau", "country": "DE"}}, {"type": "Feature", "geometry": {"type": "Point", "coordinates": [4.40346, 51.21989]}, "properties": {"name": "Jacob Jansz de Graeff", "role": "soldier", "location": "Antwerpen", "country": "BE"}}, {"type": "Feature", "geometry": {"type": "Point", "coordinates": [8.88483, 54.49351]}, "properties": {"name": "Hans Pietersz", "role": "soldier", "location": "Nordstrand", "country": "DE"}}, {"type": "Feature", "geometry": {"type": "Point", "coordinates": [8.76966, 55.33051]}, "properties": {"name": "Cornelis Pieterss", "role": "sailor", "location": "Ribe", "country": "DK"}}, {"type": "Feature", "geometry": {"type": "Point", "coordinates": [4.47917, 51.9225]}, "properties": {"name": "Maerten Jansz", "role": "sailor", "location": "Rotterdam", "country": "NL"}}, {"type": "Feature", "geometry": {"type": "Point", "coordinates": [7.20778, 53.36745]}, "properties": {"name": "Volckert Jansz", "role": "soldier", "location": "Emden", "country": "DE"}}, {"type": "Feature", "geometry": {"type": "Point", "coordinates": [5.99697, 53.32224]}, "properties": {"name": "Harmen Janssz", "role": "sailor", "location": "Dokkum", "country": "NL"}}, {"type": "Feature", "geometry": {"type": "Point", "coordinates": [7.78484, 53.63034]}, "properties": {"name": "Haye Meijndertsz", "role": "sailor", "location": "Funnix", "country": "DE"}}, {"type": "Feature", "geometry": {"type": "Point", "coordinates": [4.47917, 51.9225]}, "properties": {"name": "Pieter Jansz", "role": "sailor", "location": "Rotterdam", "country": "NL"}}, {"type": "Feature", "geometry": {"type": "Point", "coordinates": [4.74861, 52.63167]}, "properties": {"name": "Willem Willemsz", "role": "sailor", "location": "Alkmaar", "country": "NL"}}, {"type": "Feature", "geometry": {"type": "Point", "coordinates": [3.61389, 51.5]}, "properties": {"name": "Marten van Campen", "role": "sailor", "location": "Middelburg", "country": "NL"}}, {"type": "Feature", "geometry": {"type": "Point", "coordinates": [5.80859, 53.20139]}, "properties": {"name": "Carel Heickson", "role": "soldier", "location": "Leeuwarden", "country": "NL"}}, {"type": "Feature", "geometry": {"type": "Point", "coordinates": [12.6136, 56.03606]}, "properties": {"name": "Jan Jacobsz Keen", "role": "sailor", "location": "Helsing\u00f8r", "country": "DK"}}, {"type": "Feature", "geometry": {"type": "Point", "coordinates": [7.86713, 49.8414]}, "properties": {"name": "Jurrien Pietersz", "role": "soldier", "location": "Kreuznach", "country": "DE"}}, {"type": "Feature", "geometry": {"type": "Point", "coordinates": [13.0818, 54.30911]}, "properties": {"name": "Hans Boghtien", "role": "sailor", "location": "Stralsund", "country": "DE"}}, {"type": "Feature", "geometry": {"type": "Point", "coordinates": [13.0818, 54.30911]}, "properties": {"name": "Hans Bogtien", "role": "sailor", "location": "Stralsund", "country": "DE"}}, {"type": "Feature", "geometry": {"type": "Point", "coordinates": [10.4234469, 51.0834196]}, "properties": {"name": "Balthasar Creijshauw", "role": "sailor", "location": "Duitsland (land)", "country": "DE"}}, {"type": "Feature", "geometry": {"type": "Point", "coordinates": [-1.08271, 53.95763]}, "properties": {"name": "Thomas Los", "role": "sailor", "location": "York", "country": "GB"}}, {"type": "Feature", "geometry": {"type": "Point", "coordinates": [4.63683, 52.38084]}, "properties": {"name": "Cornelis Jacobsz Goetkoop", "role": "sailor", "location": "Haarlem", "country": "DE"}}, {"type": "Feature", "geometry": {"type": "Point", "coordinates": [6.96626, 52.49912]}, "properties": {"name": "Barent Dijssel", "role": "sailor", "location": "Neuenhaus", "country": "DE"}}, {"type": "Feature", "geometry": {"type": "Point", "coordinates": [10.4234469, 51.0834196]}, "properties": {"name": "Hans Jansz", "role": "soldier", "location": "Duitsland (land)", "country": "DE"}}, {"type": "Feature", "geometry": {"type": "Point", "coordinates": [4.63683, 52.38084]}, "properties": {"name": "Cornelis Philipsz", "role": "sailor", "location": "Haarlem", "country": "DE"}}, {"type": "Feature", "geometry": {"type": "Point", "coordinates": [3.53333, 50.35]}, "properties": {"name": "Pieter Galmar", "role": "soldier", "location": "Valenciennes", "country": "FR"}}, {"type": "Feature", "geometry": {"type": "Point", "coordinates": [-0.12574, 51.50853]}, "properties": {"name": "Frederick Conweij", "role": "sailor", "location": "London", "country": "GB"}}, {"type": "Feature", "geometry": {"type": "Point", "coordinates": [10.4234469, 51.0834196]}, "properties": {"name": "Jacob Beijer", "role": "soldier", "location": "Duitsland (land)", "country": "DE"}}, {"type": "Feature", "geometry": {"type": "Point", "coordinates": [6.76111, 53.16167]}, "properties": {"name": "Jelte Henricx", "role": "sailor", "location": "Hoogezand", "country": "NL"}}, {"type": "Feature", "geometry": {"type": "Point", "coordinates": [4.40346, 51.21989]}, "properties": {"name": "Jan Engelss", "role": "soldier", "location": "Antwerpen", "country": "BE"}}, {"type": "Feature", "geometry": {"type": "Point", "coordinates": [9.05239, 54.4858]}, "properties": {"name": "Christiaen Broerss", "role": "sailor", "location": "Husum", "country": "DE"}}, {"type": "Feature", "geometry": {"type": "Point", "coordinates": [4.74861, 52.63167]}, "properties": {"name": "Jan Pietersz", "role": "sailor", "location": "Alkmaar", "country": "NL"}}, {"type": "Feature", "geometry": {"type": "Point", "coordinates": [5.04805, 52.51215]}, "properties": {"name": "Cornelis Claess", "role": "sailor", "location": "Edam", "country": "NL"}}, {"type": "Feature", "geometry": {"type": "Point", "coordinates": [7.74553, 48.58392]}, "properties": {"name": "Johannes Smits", "role": "sailor", "location": "Strasbourg", "country": "FR"}}, {"type": "Feature", "geometry": {"type": "Point", "coordinates": [5.32415, 60.39299]}, "properties": {"name": "Pieter Andriesen", "role": "sailor", "location": "Bergen", "country": "NO"}}, {"type": "Feature", "geometry": {"type": "Point", "coordinates": [9.74876, 59.00071]}, "properties": {"name": "Barent Roeloffsz", "role": "sailor", "location": "Langesund", "country": "NO"}}, {"type": "Feature", "geometry": {"type": "Point", "coordinates": [10.01534, 53.57532]}, "properties": {"name": "Andries Creuger", "role": "soldier", "location": "Hamburg", "country": "DE"}}, {"type": "Feature", "geometry": {"type": "Point", "coordinates": [9.02549, 54.11671]}, "properties": {"name": "Jan Ryckerts", "role": "soldier", "location": "Dithmarschen", "country": "DE"}}, {"type": "Feature", "geometry": {"type": "Point", "coordinates": [5.71849, 53.30048]}, "properties": {"name": "Teecke Egberts", "role": "soldier", "location": "Oude Bildtzijl", "country": "NL"}}, {"type": "Feature", "geometry": {"type": "Point", "coordinates": [5.05972, 52.6425]}, "properties": {"name": "Gerrit Willemssz", "role": "soldier", "location": "Hoorn", "country": "NL"}}, {"type": "Feature", "geometry": {"type": "Point", "coordinates": [10.4234469, 51.0834196]}, "properties": {"name": "Harmanus Pietersz", "role": "soldier", "location": "Duitsland (land)", "country": "DE"}}, {"type": "Feature", "geometry": {"type": "Point", "coordinates": [5.05972, 52.6425]}, "properties": {"name": "Gerrit Willemsz", "role": "soldier", "location": "Hoorn", "country": "NL"}}, {"type": "Feature", "geometry": {"type": "Point", "coordinates": [10.74609, 59.91273]}, "properties": {"name": "Frederick Niclaessz", "role": "sailor", "location": "Oslo", "country": "NO"}}, {"type": "Feature", "geometry": {"type": "Point", "coordinates": [5.34167, 51.97417]}, "properties": {"name": "Mathijs Gijsbertsz", "role": "sailor", "location": "Wijk bij Duurstede", "country": "NL"}}, {"type": "Feature", "geometry": {"type": "Point", "coordinates": [5.06944, 52.33]}, "properties": {"name": "Frans Gijsbertsz", "role": "sailor", "location": "Muiden", "country": "NL"}}, {"type": "Feature", "geometry": {"type": "Point", "coordinates": [4.09743, 51.65121]}, "properties": {"name": "Jan Cornelisz", "role": "sailor", "location": "Zijpe", "country": "NL"}}, {"type": "Feature", "geometry": {"type": "Point", "coordinates": [12.56553, 55.67594]}, "properties": {"name": "Pieter Thijssen", "role": "sailor", "location": "Copenhagen", "country": "DK"}}, {"type": "Feature", "geometry": {"type": "Point", "coordinates": [3.38932, 50.60715]}, "properties": {"name": "Simon del Croi", "role": "soldier", "location": "Doornik", "country": "BE"}}, {"type": "Feature", "geometry": {"type": "Point", "coordinates": [10.4234469, 51.0834196]}, "properties": {"name": "Sebastiaen Gatterman", "role": "soldier", "location": "Duitsland (land)", "country": "DE"}}, {"type": "Feature", "geometry": {"type": "Point", "coordinates": [18.64637, 54.35205]}, "properties": {"name": "Hans Jurgen", "role": "sailor", "location": "Gda\u0144sk", "country": "PL"}}, {"type": "Feature", "geometry": {"type": "Point", "coordinates": [5.12222, 52.09083]}, "properties": {"name": "Lambert Beerentsz", "role": "soldier", "location": "Utrecht", "country": "NL"}}, {"type": "Feature", "geometry": {"type": "Point", "coordinates": [10.4234469, 51.0834196]}, "properties": {"name": "Harmanus Pieterssz", "role": "soldier", "location": "Duitsland (land)", "country": "DE"}}, {"type": "Feature", "geometry": {"type": "Point", "coordinates": [-1.08271, 53.95763]}, "properties": {"name": "Thomas Los", "role": "sailor", "location": "York", "country": "GB"}}, {"type": "Feature", "geometry": {"type": "Point", "coordinates": [8.86906, 54.75802]}, "properties": {"name": "Lourens Hansz", "role": "soldier", "location": "Risum-Lindholm", "country": "DE"}}, {"type": "Feature", "geometry": {"type": "Point", "coordinates": [10.01534, 53.57532]}, "properties": {"name": "Andries Kreger", "role": "soldier", "location": "Hamburg", "country": "DE"}}, {"type": "Feature", "geometry": {"type": "Point", "coordinates": [4.34878, 50.85045]}, "properties": {"name": "Anthonij van den Berge", "role": "sailor", "location": "Brussel", "country": "BE"}}, {"type": "Feature", "geometry": {"type": "Point", "coordinates": [4.89444, 52.11083]}, "properties": {"name": "Guilliaem la Forge", "role": "soldier", "location": "Kamerik", "country": "NL"}}, {"type": "Feature", "geometry": {"type": "Point", "coordinates": [1.888334, 46.603354]}, "properties": {"name": "Simon Marguilliere", "role": "soldier", "location": "Frankrijk (land)", "country": "FR"}}, {"type": "Feature", "geometry": {"type": "Point", "coordinates": [3.06667, 50.36667]}, "properties": {"name": "Philips Schodron", "role": "soldier", "location": "Douai", "country": "FR"}}, {"type": "Feature", "geometry": {"type": "Point", "coordinates": [3.53333, 50.35]}, "properties": {"name": "Jacques van Schoten", "role": "soldier", "location": "Valenciennes", "country": "FR"}}, {"type": "Feature", "geometry": {"type": "Point", "coordinates": [18.64637, 54.35205]}, "properties": {"name": "Valentijn Engelman", "role": "soldier", "location": "Gda\u0144sk", "country": "PL"}}, {"type": "Feature", "geometry": {"type": "Point", "coordinates": [3.57361, 51.4425]}, "properties": {"name": "Jan Adriaensz", "role": "soldier", "location": "Vlissingen", "country": "NL"}}, {"type": "Feature", "geometry": {"type": "Point", "coordinates": [3.57361, 51.4425]}, "properties": {"name": "Jan Adriaensz", "role": "soldier", "location": "Vlissingen", "country": "NL"}}, {"type": "Feature", "geometry": {"type": "Point", "coordinates": [14.55302, 53.42894]}, "properties": {"name": "Marten Martensz", "role": "sailor", "location": "Szczecin", "country": "PL"}}, {"type": "Feature", "geometry": {"type": "Point", "coordinates": [10.4234469, 51.0834196]}, "properties": {"name": "Thijs Claessz", "role": "soldier", "location": "Duitsland (land)", "country": "DE"}}, {"type": "Feature", "geometry": {"type": "Point", "coordinates": [7.20778, 53.36745]}, "properties": {"name": "Willem Claesz", "role": "soldier", "location": "Emden", "country": "DE"}}, {"type": "Feature", "geometry": {"type": "Point", "coordinates": [10.4234469, 51.0834196]}, "properties": {"name": "Harmen Janssz", "role": "soldier", "location": "Duitsland (land)", "country": "DE"}}, {"type": "Feature", "geometry": {"type": "Point", "coordinates": [4.72639, 52.10583]}, "properties": {"name": "Leendert Hendricxsz", "role": "sailor", "location": "Zwammerdam", "country": "NL"}}, {"type": "Feature", "geometry": {"type": "Point", "coordinates": [4.88969, 52.37403]}, "properties": {"name": "Jan Pietersz", "role": "soldier", "location": "Amsterdam", "country": "NL"}}, {"type": "Feature", "geometry": {"type": "Point", "coordinates": [5.91854, 52.95929]}, "properties": {"name": "Adriaen Woutersz", "role": "sailor", "location": "Heerenveen", "country": "NL"}}, {"type": "Feature", "geometry": {"type": "Point", "coordinates": [11.58218, 57.88699]}, "properties": {"name": "Pieter Laurensz", "role": "sailor", "location": "Marstrand", "country": "SE"}}, {"type": "Feature", "geometry": {"type": "Point", "coordinates": [7.98635, 53.58539]}, "properties": {"name": "Tjerck Eldersz", "role": "sailor", "location": "Jeverland", "country": "DE"}}, {"type": "Feature", "geometry": {"type": "Point", "coordinates": [11.26931, 59.10123]}, "properties": {"name": "Jan Arentsz", "role": "sailor", "location": "Svinesund", "country": "NO"}}, {"type": "Feature", "geometry": {"type": "Point", "coordinates": [4.88969, 52.37403]}, "properties": {"name": "Jan Pietersz", "role": "soldier", "location": "Amsterdam", "country": "NL"}}, {"type": "Feature", "geometry": {"type": "Point", "coordinates": [4.44474, 52.234]}, "properties": {"name": "Willem Pietersz", "role": "sailor", "location": "Noordwijk-Binnen", "country": "NL"}}, {"type": "Feature", "geometry": {"type": "Point", "coordinates": [18.0649, 59.33258]}, "properties": {"name": "Barthelt Sijbrantsz", "role": "sailor", "location": "Stockholm", "country": "SE"}}, {"type": "Feature", "geometry": {"type": "Point", "coordinates": [4.63683, 52.38084]}, "properties": {"name": "Pieter Corneliss Verbeeck", "role": "soldier", "location": "Haarlem", "country": "DE"}}, {"type": "Feature", "geometry": {"type": "Point", "coordinates": [7.07002, 58.1376]}, "properties": {"name": "Pieter Janss", "role": "soldier", "location": "Lyngdal", "country": "NO"}}, {"type": "Feature", "geometry": {"type": "Point", "coordinates": [14.68333, 56.05]}, "properties": {"name": "Dirck Barentsz", "role": "sailor", "location": "Listerlandet Peninsula", "country": "SE"}}, {"type": "Feature", "geometry": {"type": "Point", "coordinates": [5.12222, 52.09083]}, "properties": {"name": "Pieter Harmessz", "role": "sailor", "location": "Utrecht", "country": "NL"}}, {"type": "Feature", "geometry": {"type": "Point", "coordinates": [4.88969, 52.37403]}, "properties": {"name": "Fredrick van Bergen", "role": "sailor", "location": "Amsterdam", "country": "NL"}}, {"type": "Feature", "geometry": {"type": "Point", "coordinates": [5.84028, 52.7875]}, "properties": {"name": "Senneke Jacobs", "role": "sailor", "location": "Kuinre", "country": "NL"}}, {"type": "Feature", "geometry": {"type": "Point", "coordinates": [5.91854, 52.95929]}, "properties": {"name": "Sijmen Lieuwes", "role": "sailor", "location": "Heerenveen", "country": "NL"}}, {"type": "Feature", "geometry": {"type": "Point", "coordinates": [4.63683, 52.38084]}, "properties": {"name": "Pieter Jacobss", "role": "sailor", "location": "Haarlem", "country": "DE"}}, {"type": "Feature", "geometry": {"type": "Point", "coordinates": [5.05972, 52.6425]}, "properties": {"name": "Gerrit Sijmonsz", "role": "sailor", "location": "Hoorn", "country": "NL"}}, {"type": "Feature", "geometry": {"type": "Point", "coordinates": [10.68729, 53.86893]}, "properties": {"name": "Hendrick Janssz", "role": "sailor", "location": "L\u00fcbeck", "country": "DE"}}, {"type": "Feature", "geometry": {"type": "Point", "coordinates": [8.80777, 53.07516]}, "properties": {"name": "Luijtgen Meullenbroeck", "role": "sailor", "location": "Bremen", "country": "DE"}}, {"type": "Feature", "geometry": {"type": "Point", "coordinates": [5.32415, 60.39299]}, "properties": {"name": "Jan Laurensz", "role": "sailor", "location": "Bergen", "country": "NO"}}, {"type": "Feature", "geometry": {"type": "Point", "coordinates": [10.01534, 53.57532]}, "properties": {"name": "Pieter Jansz", "role": "sailor", "location": "Hamburg", "country": "DE"}}, {"type": "Feature", "geometry": {"type": "Point", "coordinates": [-9.13333, 38.71667]}, "properties": {"name": "Manuel Franscisco", "role": "sailor", "location": "Lisboa", "country": "PT"}}, {"type": "Feature", "geometry": {"type": "Point", "coordinates": [4.88969, 52.37403]}, "properties": {"name": "Eldert Minnesz", "role": "sailor", "location": "Amsterdam", "country": "NL"}}, {"type": "Feature", "geometry": {"type": "Point", "coordinates": [4.93889, 52.71583]}, "properties": {"name": "Cornelis Muijssen", "role": "soldier", "location": "Hoogwoud", "country": "NL"}}, {"type": "Feature", "geometry": {"type": "Point", "coordinates": [4.88969, 52.37403]}, "properties": {"name": "Dirck Pietersz", "role": "sailor", "location": "Amsterdam", "country": "NL"}}, {"type": "Feature", "geometry": {"type": "Point", "coordinates": [5.6589, 53.03297]}, "properties": {"name": "Sipke Sijmons", "role": "sailor", "location": "Sneek", "country": "NL"}}, {"type": "Feature", "geometry": {"type": "Point", "coordinates": [16.36163, 56.66157]}, "properties": {"name": "Bartelt Janssz", "role": "sailor", "location": "Kalmar", "country": "SE"}}, {"type": "Feature", "geometry": {"type": "Point", "coordinates": [11.58218, 57.88699]}, "properties": {"name": "Jan Janssz", "role": "sailor", "location": "Marstrand", "country": "SE"}}, {"type": "Feature", "geometry": {"type": "Point", "coordinates": [9.23422, 58.72057]}, "properties": {"name": "Cornelis Mathijss", "role": "sailor", "location": "Ris\u00f8r", "country": "NO"}}, {"type": "Feature", "geometry": {"type": "Point", "coordinates": [10.9298, 59.2181]}, "properties": {"name": "Theunis Janss", "role": "sailor", "location": "Fredrikstad", "country": "NO"}}, {"type": "Feature", "geometry": {"type": "Point", "coordinates": [4.54444, 52.0775]}, "properties": {"name": "Marcus Claessz", "role": "soldier", "location": "Benthuizen", "country": "NL"}}, {"type": "Feature", "geometry": {"type": "Point", "coordinates": [7.20778, 53.36745]}, "properties": {"name": "Arent Harmensz", "role": "sailor", "location": "Emden", "country": "DE"}}, {"type": "Feature", "geometry": {"type": "Point", "coordinates": [5.84028, 52.7875]}, "properties": {"name": "Claes Sijbrantsz", "role": "sailor", "location": "Kuinre", "country": "NL"}}, {"type": "Feature", "geometry": {"type": "Point", "coordinates": [4.63683, 52.38084]}, "properties": {"name": "Jacob Janssz", "role": "sailor", "location": "Haarlem", "country": "DE"}}, {"type": "Feature", "geometry": {"type": "Point", "coordinates": [10.03517, 59.05328]}, "properties": {"name": "Carsten Lourenssz", "role": "sailor", "location": "Larvik", "country": "NO"}}, {"type": "Feature", "geometry": {"type": "Point", "coordinates": [5.91111, 52.555]}, "properties": {"name": "Henrick Cornelisz", "role": "sailor", "location": "Kampen", "country": "NL"}}, {"type": "Feature", "geometry": {"type": "Point", "coordinates": [4.75139, 53.025]}, "properties": {"name": "Pieter Jansz", "role": "sailor", "location": "Den Hoorn", "country": "NL"}}, {"type": "Feature", "geometry": {"type": "Point", "coordinates": [21.10279, 54.86205]}, "properties": {"name": "Lourens Keeler", "role": "soldier", "location": "Polessk", "country": "RU"}}, {"type": "Feature", "geometry": {"type": "Point", "coordinates": [4.63683, 52.38084]}, "properties": {"name": "Marten Gerritsz", "role": "sailor", "location": "Haarlem", "country": "DE"}}, {"type": "Feature", "geometry": {"type": "Point", "coordinates": [11.15006, 51.78843]}, "properties": {"name": "Thomas Weulli", "role": "soldier", "location": "Quedlinburg", "country": "DE"}}, {"type": "Feature", "geometry": {"type": "Point", "coordinates": [11.00985, 52.2279]}, "properties": {"name": "Jochem Brinckquel", "role": "soldier", "location": "Helmstedt", "country": "DE"}}, {"type": "Feature", "geometry": {"type": "Point", "coordinates": [7.74553, 48.58392]}, "properties": {"name": "Pieter Koegler", "role": "soldier", "location": "Strasbourg", "country": "FR"}}, {"type": "Feature", "geometry": {"type": "Point", "coordinates": [5.80859, 53.20139]}, "properties": {"name": "Albert Henninx", "role": "soldier", "location": "Leeuwarden", "country": "NL"}}, {"type": "Feature", "geometry": {"type": "Point", "coordinates": [-0.12574, 51.50853]}, "properties": {"name": "Jacob Backer", "role": "sailor", "location": "London", "country": "GB"}}, {"type": "Feature", "geometry": {"type": "Point", "coordinates": [8.21467, 53.14118]}, "properties": {"name": "Fredrick Jansz", "role": "soldier", "location": "Oldenburg", "country": "DE"}}, {"type": "Feature", "geometry": {"type": "Point", "coordinates": [24.10589, 56.946]}, "properties": {"name": "Barent Marckquart", "role": "sailor", "location": "Riga", "country": "LV"}}, {"type": "Feature", "geometry": {"type": "Point", "coordinates": [12.43318, 49.81079]}, "properties": {"name": "Aertman Meulder", "role": "soldier", "location": "B\u00e4rnau", "country": "DE"}}, {"type": "Feature", "geometry": {"type": "Point", "coordinates": [5.1625, 52.29583]}, "properties": {"name": "Jan Jansz", "role": "sailor", "location": "Naarden", "country": "NL"}}, {"type": "Feature", "geometry": {"type": "Point", "coordinates": [24.10589, 56.946]}, "properties": {"name": "Barent Merckquart", "role": "sailor", "location": "Riga", "country": "LV"}}, {"type": "Feature", "geometry": {"type": "Point", "coordinates": [2.8, 49.63333]}, "properties": {"name": "Anthonij Backer", "role": "soldier", "location": "Picardie", "country": "FR"}}, {"type": "Feature", "geometry": {"type": "Point", "coordinates": [13.0818, 54.30911]}, "properties": {"name": "Claes Gerritsz", "role": "sailor", "location": "Stralsund", "country": "DE"}}, {"type": "Feature", "geometry": {"type": "Point", "coordinates": [5.22778, 51.955]}, "properties": {"name": "Dirck Dircxsz", "role": "sailor", "location": "Culemborg", "country": "NL"}}, {"type": "Feature", "geometry": {"type": "Point", "coordinates": [11.36536, 50.64826]}, "properties": {"name": "Dominicus Krijger", "role": "sailor", "location": "Saalfeld", "country": "DE"}}, {"type": "Feature", "geometry": {"type": "Point", "coordinates": [11.36536, 50.64826]}, "properties": {"name": "Dominicus Krijger", "role": "sailor", "location": "Saalfeld", "country": "DE"}}, {"type": "Feature", "geometry": {"type": "Point", "coordinates": [4.88969, 52.37403]}, "properties": {"name": "Jacob Jansz Stellinghwerf", "role": "sailor", "location": "Amsterdam", "country": "NL"}}, {"type": "Feature", "geometry": {"type": "Point", "coordinates": [10.68729, 53.86893]}, "properties": {"name": "Jan Weijdendorp", "role": "sailor", "location": "L\u00fcbeck", "country": "DE"}}, {"type": "Feature", "geometry": {"type": "Point", "coordinates": [5.29167, 52.70333]}, "properties": {"name": "Jan Daniels Wolffraet", "role": "soldier", "location": "Enkhuizen", "country": "NL"}}, {"type": "Feature", "geometry": {"type": "Point", "coordinates": [18.0649, 59.33258]}, "properties": {"name": "Marten Dircxsz", "role": "soldier", "location": "Stockholm", "country": "SE"}}, {"type": "Feature", "geometry": {"type": "Point", "coordinates": [18.0649, 59.33258]}, "properties": {"name": "Abraham Hendricxsz", "role": "soldier", "location": "Stockholm", "country": "SE"}}, {"type": "Feature", "geometry": {"type": "Point", "coordinates": [0.57449, 51.78449]}, "properties": {"name": "Jan Koocker", "role": "soldier", "location": "Essex", "country": "GB"}}, {"type": "Feature", "geometry": {"type": "Point", "coordinates": [4.58194, 52.01167]}, "properties": {"name": "Arian Claesz", "role": "sailor", "location": "Zevenhuizen", "country": "NL"}}, {"type": "Feature", "geometry": {"type": "Point", "coordinates": [6.86944, 53.13417]}, "properties": {"name": "Sipke Harckes", "role": "soldier", "location": "Muntendam", "country": "NL"}}, {"type": "Feature", "geometry": {"type": "Point", "coordinates": [4.63683, 52.38084]}, "properties": {"name": "Jacob Corneliss", "role": "soldier", "location": "Haarlem", "country": "DE"}}, {"type": "Feature", "geometry": {"type": "Point", "coordinates": [4.03472, 51.44917]}, "properties": {"name": "Jacob Metteneije", "role": "sailor", "location": "Kruiningen", "country": "NL"}}, {"type": "Feature", "geometry": {"type": "Point", "coordinates": [4.96111, 52.69833]}, "properties": {"name": "Dirck Arisz", "role": "sailor", "location": "Spanbroek", "country": "NL"}}, {"type": "Feature", "geometry": {"type": "Point", "coordinates": [4.60278, 51.8725]}, "properties": {"name": "Jan Aertsz", "role": "soldier", "location": "Ridderkerk", "country": "NL"}}, {"type": "Feature", "geometry": {"type": "Point", "coordinates": [7.20778, 53.36745]}, "properties": {"name": "Michiel Eldertsz", "role": "sailor", "location": "Emden", "country": "DE"}}, {"type": "Feature", "geometry": {"type": "Point", "coordinates": [10.01534, 53.57532]}, "properties": {"name": "Jan Janssz Cleijn", "role": "sailor", "location": "Hamburg", "country": "DE"}}, {"type": "Feature", "geometry": {"type": "Point", "coordinates": [5.85278, 51.8425]}, "properties": {"name": "Thijs Martenss", "role": "soldier", "location": "Nijmegen", "country": "NL"}}, {"type": "Feature", "geometry": {"type": "Point", "coordinates": [4.40346, 51.21989]}, "properties": {"name": "Jan Arentss Bonekam", "role": "soldier", "location": "Antwerpen", "country": "BE"}}, {"type": "Feature", "geometry": {"type": "Point", "coordinates": [16.1619, 51.21006]}, "properties": {"name": "Godefroij van Bermger", "role": "soldier", "location": "Legnica", "country": "PL"}}, {"type": "Feature", "geometry": {"type": "Point", "coordinates": [8.47432, 48.99976]}, "properties": {"name": "Johan Casper Seeman", "role": "soldier", "location": "Durlach", "country": "DE"}}, {"type": "Feature", "geometry": {"type": "Point", "coordinates": [11.07752, 49.45421]}, "properties": {"name": "Frederick Vaijerlaa", "role": "soldier", "location": "N\u00fcrnberg", "country": "DE"}}, {"type": "Feature", "geometry": {"type": "Point", "coordinates": [4.88969, 52.37403]}, "properties": {"name": "Jan Fredericxsz", "role": "sailor", "location": "Amsterdam", "country": "NL"}}, {"type": "Feature", "geometry": {"type": "Point", "coordinates": [8.80777, 53.07516]}, "properties": {"name": "Harmen Jansz", "role": "soldier", "location": "Bremen", "country": "DE"}}, {"type": "Feature", "geometry": {"type": "Point", "coordinates": [12.56553, 55.67594]}, "properties": {"name": "Jurrien Janss", "role": "soldier", "location": "Copenhagen", "country": "DK"}}, {"type": "Feature", "geometry": {"type": "Point", "coordinates": [9.43961, 54.78431]}, "properties": {"name": "Jan Hanss", "role": "soldier", "location": "Flensburg", "country": "DE"}}, {"type": "Feature", "geometry": {"type": "Point", "coordinates": [-1.13169, 52.6386]}, "properties": {"name": "Robbert Astijn", "role": "soldier", "location": "Leicester", "country": "GB"}}, {"type": "Feature", "geometry": {"type": "Point", "coordinates": [6.12083, 52.7875]}, "properties": {"name": "Jan Overhagen", "role": "sailor", "location": "Steenwijk", "country": "NL"}}, {"type": "Feature", "geometry": {"type": "Point", "coordinates": [4.88969, 52.37403]}, "properties": {"name": "Harmen Wijbrantsz", "role": "sailor", "location": "Amsterdam", "country": "NL"}}, {"type": "Feature", "geometry": {"type": "Point", "coordinates": [6.09444, 52.5125]}, "properties": {"name": "Pieter Barentsz", "role": "sailor", "location": "Zwolle", "country": "NL"}}, {"type": "Feature", "geometry": {"type": "Point", "coordinates": [-3.2765753, 54.7023545]}, "properties": {"name": "Huibert Hamilton", "role": "soldier", "location": "Groot-Brittanni\u00eb (land)", "country": "GB"}}, {"type": "Feature", "geometry": {"type": "Point", "coordinates": [-2.09814, 57.14369]}, "properties": {"name": "George Fijff", "role": "soldier", "location": "Aberdeen", "country": "GB"}}, {"type": "Feature", "geometry": {"type": "Point", "coordinates": [6.12083, 52.7875]}, "properties": {"name": "Geert Janssz", "role": "soldier", "location": "Steenwijk", "country": "NL"}}, {"type": "Feature", "geometry": {"type": "Point", "coordinates": [8.21467, 53.14118]}, "properties": {"name": "Jacob Scholt", "role": "soldier", "location": "Oldenburg", "country": "DE"}}, {"type": "Feature", "geometry": {"type": "Point", "coordinates": [6.63935, 49.75565]}, "properties": {"name": "Matthijs Mulder", "role": "soldier", "location": "Trier", "country": "DE"}}, {"type": "Feature", "geometry": {"type": "Point", "coordinates": [3.38932, 50.60715]}, "properties": {"name": "Niclaes de Bruijn", "role": "soldier", "location": "Doornik", "country": "BE"}}, {"type": "Feature", "geometry": {"type": "Point", "coordinates": [5.32415, 60.39299]}, "properties": {"name": "Jan Gerritss", "role": "sailor", "location": "Bergen", "country": "NO"}}, {"type": "Feature", "geometry": {"type": "Point", "coordinates": [18.64637, 54.35205]}, "properties": {"name": "Hans Jochemss Ruijter", "role": "soldier", "location": "Gda\u0144sk", "country": "PL"}}, {"type": "Feature", "geometry": {"type": "Point", "coordinates": [8.24402, 56.09006]}, "properties": {"name": "Lourens Christiaenss", "role": "soldier", "location": "Ringk\u00f8bing", "country": "DK"}}, {"type": "Feature", "geometry": {"type": "Point", "coordinates": [5.32415, 60.39299]}, "properties": {"name": "Jan Carstenss", "role": "sailor", "location": "Bergen", "country": "NO"}}, {"type": "Feature", "geometry": {"type": "Point", "coordinates": [18.64637, 54.35205]}, "properties": {"name": "Hans Jochems Ruijter", "role": "soldier", "location": "Gda\u0144sk", "country": "PL"}}, {"type": "Feature", "geometry": {"type": "Point", "coordinates": [4.74861, 52.63167]}, "properties": {"name": "Barent Jansz", "role": "soldier", "location": "Alkmaar", "country": "NL"}}, {"type": "Feature", "geometry": {"type": "Point", "coordinates": [8.468946, 60.472024]}, "properties": {"name": "Andries Albertsz", "role": "soldier", "location": "Noorwegen (land)", "country": "NO"}}, {"type": "Feature", "geometry": {"type": "Point", "coordinates": [6.0625, 50.86583]}, "properties": {"name": "Jan Saelbergh", "role": "sailor", "location": "Kerkrade", "country": "NL"}}, {"type": "Feature", "geometry": {"type": "Point", "coordinates": [7.466, 51.51494]}, "properties": {"name": "Joris Gaute", "role": "sailor", "location": "Dortmund", "country": "DE"}}, {"type": "Feature", "geometry": {"type": "Point", "coordinates": [12.56553, 55.67594]}, "properties": {"name": "Roeloff Cornelis", "role": "sailor", "location": "Copenhagen", "country": "DK"}}, {"type": "Feature", "geometry": {"type": "Point", "coordinates": [1.09932, 49.44313]}, "properties": {"name": "Samuel le Tellier", "role": "soldier", "location": "Rouen", "country": "FR"}}, {"type": "Feature", "geometry": {"type": "Point", "coordinates": [3.22424, 51.20892]}, "properties": {"name": "Ferdinandus Jacobs", "role": "soldier", "location": "Brugge", "country": "BE"}}, {"type": "Feature", "geometry": {"type": "Point", "coordinates": [10.4234469, 51.0834196]}, "properties": {"name": "Mighiel Merrenberger", "role": "soldier", "location": "Duitsland (land)", "country": "DE"}}, {"type": "Feature", "geometry": {"type": "Point", "coordinates": [7.74553, 48.58392]}, "properties": {"name": "Baltzer Hanssz", "role": "sailor", "location": "Strasbourg", "country": "FR"}}, {"type": "Feature", "geometry": {"type": "Point", "coordinates": [12.14049, 54.0887]}, "properties": {"name": "Juriaen Staelboom", "role": "sailor", "location": "Rostock", "country": "DE"}}, {"type": "Feature", "geometry": {"type": "Point", "coordinates": [6.95, 50.93333]}, "properties": {"name": "Gerrit Collingio", "role": "sailor", "location": "K\u00f6ln", "country": "DE"}}, {"type": "Feature", "geometry": {"type": "Point", "coordinates": [4.65556, 51.47167]}, "properties": {"name": "Wouter Jan Symons", "role": "sailor", "location": "Zundert", "country": "NL"}}, {"type": "Feature", "geometry": {"type": "Point", "coordinates": [4.88969, 52.37403]}, "properties": {"name": "Jan Henricxsz", "role": "sailor", "location": "Amsterdam", "country": "NL"}}, {"type": "Feature", "geometry": {"type": "Point", "coordinates": [8.21467, 53.14118]}, "properties": {"name": "Dirck Jans", "role": "sailor", "location": "Oldenburg", "country": "DE"}}, {"type": "Feature", "geometry": {"type": "Point", "coordinates": [4.63683, 52.38084]}, "properties": {"name": "Guilliaem Lievensz", "role": "sailor", "location": "Haarlem", "country": "DE"}}, {"type": "Feature", "geometry": {"type": "Point", "coordinates": [-1.61396, 54.97328]}, "properties": {"name": "Henric Kar", "role": "sailor", "location": "Newcastle upon Tyne", "country": "GB"}}, {"type": "Feature", "geometry": {"type": "Point", "coordinates": [4.62301, 52.34992]}, "properties": {"name": "Cornelis Gerrits", "role": "soldier", "location": "Heemstede", "country": "NL"}}, {"type": "Feature", "geometry": {"type": "Point", "coordinates": [6.9651, 53.05969]}, "properties": {"name": "Lubbert Hercules", "role": "soldier", "location": "Gemeente Pekela", "country": "NL"}}, {"type": "Feature", "geometry": {"type": "Point", "coordinates": [8.80777, 53.07516]}, "properties": {"name": "Symon Jansz", "role": "soldier", "location": "Bremen", "country": "DE"}}, {"type": "Feature", "geometry": {"type": "Point", "coordinates": [5.32415, 60.39299]}, "properties": {"name": "Andries Janss", "role": "sailor", "location": "Bergen", "country": "NO"}}, {"type": "Feature", "geometry": {"type": "Point", "coordinates": [6.62037, 51.6669]}, "properties": {"name": "Stoffel Janss Lul", "role": "sailor", "location": "Wesel", "country": "DE"}}, {"type": "Feature", "geometry": {"type": "Point", "coordinates": [8.31019, 56.54856]}, "properties": {"name": "Harmen Coos Christensz", "role": "soldier", "location": "Lemvig", "country": "DK"}}, {"type": "Feature", "geometry": {"type": "Point", "coordinates": [9.02549, 54.11671]}, "properties": {"name": "Jan Pietterss", "role": "sailor", "location": "Dithmarschen", "country": "DE"}}, {"type": "Feature", "geometry": {"type": "Point", "coordinates": [10.68729, 53.86893]}, "properties": {"name": "Claes Hagen", "role": "sailor", "location": "L\u00fcbeck", "country": "DE"}}, {"type": "Feature", "geometry": {"type": "Point", "coordinates": [8.80777, 53.07516]}, "properties": {"name": "Gerrit Gerritsz", "role": "sailor", "location": "Bremen", "country": "DE"}}, {"type": "Feature", "geometry": {"type": "Point", "coordinates": [10.09347, 51.37971]}, "properties": {"name": "Jan Arentsz", "role": "soldier", "location": "Rengelrode", "country": "DE"}}, {"type": "Feature", "geometry": {"type": "Point", "coordinates": [8.80777, 53.07516]}, "properties": {"name": "Jan Gerritsz", "role": "sailor", "location": "Bremen", "country": "DE"}}, {"type": "Feature", "geometry": {"type": "Point", "coordinates": [6.77616, 51.22172]}, "properties": {"name": "Cornelis Woutersz", "role": "soldier", "location": "D\u00fcsseldorf", "country": "DE"}}, {"type": "Feature", "geometry": {"type": "Point", "coordinates": [6.76516, 51.43247]}, "properties": {"name": "Carel Fonteijn", "role": "soldier", "location": "Duisburg", "country": "DE"}}, {"type": "Feature", "geometry": {"type": "Point", "coordinates": [14.30528, 46.62472]}, "properties": {"name": "Alicxander Chrijsaij", "role": "soldier", "location": "Klagenfurt", "country": "AT"}}, {"type": "Feature", "geometry": {"type": "Point", "coordinates": [5.80859, 53.20139]}, "properties": {"name": "Albert Hennicx", "role": "soldier", "location": "Leeuwarden", "country": "NL"}}, {"type": "Feature", "geometry": {"type": "Point", "coordinates": [4.40346, 51.21989]}, "properties": {"name": "Antonij Kalberner", "role": "sailor", "location": "Antwerpen", "country": "BE"}}, {"type": "Feature", "geometry": {"type": "Point", "coordinates": [-2.1601, 51.99244]}, "properties": {"name": "Thomas Waert", "role": "soldier", "location": "Tewkesbury", "country": "GB"}}, {"type": "Feature", "geometry": {"type": "Point", "coordinates": [-3.0, 51.08333]}, "properties": {"name": "Eduart Maij", "role": "soldier", "location": "Somerset", "country": "GB"}}, {"type": "Feature", "geometry": {"type": "Point", "coordinates": [10.44386, 50.72136]}, "properties": {"name": "Hans Pluijmlingh", "role": "soldier", "location": "Schmalkalden", "country": "DE"}}, {"type": "Feature", "geometry": {"type": "Point", "coordinates": [10.13744, 51.37819]}, "properties": {"name": "Diderick Beck", "role": "soldier", "location": "Heilbad Heiligenstadt", "country": "DE"}}, {"type": "Feature", "geometry": {"type": "Point", "coordinates": [8.80777, 53.07516]}, "properties": {"name": "Luur Henricxsz", "role": "sailor", "location": "Bremen", "country": "DE"}}, {"type": "Feature", "geometry": {"type": "Point", "coordinates": [13.01582, 52.45905]}, "properties": {"name": "Andries Praem", "role": "soldier", "location": "Brandenburg", "country": "DE"}}, {"type": "Feature", "geometry": {"type": "Point", "coordinates": [4.47917, 51.9225]}, "properties": {"name": "Jan Jacobsz", "role": "soldier", "location": "Rotterdam", "country": "NL"}}, {"type": "Feature", "geometry": {"type": "Point", "coordinates": [18.0649, 59.33258]}, "properties": {"name": "Jurriaen Peeterson", "role": "soldier", "location": "Stockholm", "country": "SE"}}, {"type": "Feature", "geometry": {"type": "Point", "coordinates": [10.4234469, 51.0834196]}, "properties": {"name": "Claes Claessz", "role": "soldier", "location": "Duitsland (land)", "country": "DE"}}, {"type": "Feature", "geometry": {"type": "Point", "coordinates": [4.29167, 51.495]}, "properties": {"name": "Willem van Hec", "role": "soldier", "location": "Bergen op Zoom", "country": "NL"}}, {"type": "Feature", "geometry": {"type": "Point", "coordinates": [10.90067, 49.89873]}, "properties": {"name": "Hans Christoffelsz", "role": "soldier", "location": "Bamberg", "country": "DE"}}, {"type": "Feature", "geometry": {"type": "Point", "coordinates": [-2.01667, 48.65]}, "properties": {"name": "Willem Janssz", "role": "sailor", "location": "Saint-Malo", "country": "FR"}}, {"type": "Feature", "geometry": {"type": "Point", "coordinates": [10.01534, 53.57532]}, "properties": {"name": "Engelbrecht Streepheeden", "role": "sailor", "location": "Hamburg", "country": "DE"}}, {"type": "Feature", "geometry": {"type": "Point", "coordinates": [7.99637, 58.07932]}, "properties": {"name": "Hans Salmss", "role": "sailor", "location": "Flekker\u00f8y", "country": "NO"}}, {"type": "Feature", "geometry": {"type": "Point", "coordinates": [5.0, 51.76667]}, "properties": {"name": "Frans Koolhagen", "role": "soldier", "location": "Land van Altena", "country": "NL"}}, {"type": "Feature", "geometry": {"type": "Point", "coordinates": [10.01534, 53.57532]}, "properties": {"name": "Carsten Heijtman", "role": "sailor", "location": "Hamburg", "country": "DE"}}, {"type": "Feature", "geometry": {"type": "Point", "coordinates": [7.20778, 53.36745]}, "properties": {"name": "Pieter Gerritss", "role": "sailor", "location": "Emden", "country": "DE"}}, {"type": "Feature", "geometry": {"type": "Point", "coordinates": [-8.61099, 41.14961]}, "properties": {"name": "Franciscus Derosche", "role": "soldier", "location": "Porto", "country": "PT"}}, {"type": "Feature", "geometry": {"type": "Point", "coordinates": [-8.53056, 51.7075]}, "properties": {"name": "Dirck Barentss", "role": "soldier", "location": "Kinsale", "country": "IE"}}, {"type": "Feature", "geometry": {"type": "Point", "coordinates": [4.65556, 51.47167]}, "properties": {"name": "Jan Simons", "role": "sailor", "location": "Zundert", "country": "NL"}}, {"type": "Feature", "geometry": {"type": "Point", "coordinates": [20.64372, 54.38714]}, "properties": {"name": "Christoffel Patius", "role": "soldier", "location": "Bagrationovsk", "country": "RU"}}, {"type": "Feature", "geometry": {"type": "Point", "coordinates": [4.63683, 52.38084]}, "properties": {"name": "Willem Willemsz", "role": "sailor", "location": "Haarlem", "country": "DE"}}, {"type": "Feature", "geometry": {"type": "Point", "coordinates": [8.76966, 55.33051]}, "properties": {"name": "Jeuriaen Jansz", "role": "soldier", "location": "Ribe", "country": "DK"}}, {"type": "Feature", "geometry": {"type": "Point", "coordinates": [4.63683, 52.38084]}, "properties": {"name": "Cors Jacobsz", "role": "sailor", "location": "Haarlem", "country": "DE"}}, {"type": "Feature", "geometry": {"type": "Point", "coordinates": [10.42766, 51.90425]}, "properties": {"name": "Jeronimus Arensborch", "role": "soldier", "location": "Goslar", "country": "DE"}}, {"type": "Feature", "geometry": {"type": "Point", "coordinates": [-3.66667, 51.66667]}, "properties": {"name": "William Basset", "role": "sailor", "location": "Glamorganshire", "country": "GB"}}, {"type": "Feature", "geometry": {"type": "Point", "coordinates": [8.76966, 55.33051]}, "properties": {"name": "Jeuriaen Jansz", "role": "soldier", "location": "Ribe", "country": "DK"}}, {"type": "Feature", "geometry": {"type": "Point", "coordinates": [5.42244, 53.17477]}, "properties": {"name": "Wijggert Siversz", "role": "soldier", "location": "Harlingen", "country": "NL"}}, {"type": "Feature", "geometry": {"type": "Point", "coordinates": [3.9125, 51.72667]}, "properties": {"name": "Crijn Kornsz", "role": "soldier", "location": "Brouwershaven", "country": "NL"}}, {"type": "Feature", "geometry": {"type": "Point", "coordinates": [5.12917, 51.82667]}, "properties": {"name": "Dirck Woltersz", "role": "sailor", "location": "Herwijnen", "country": "NL"}}, {"type": "Feature", "geometry": {"type": "Point", "coordinates": [7.20639, 53.59552]}, "properties": {"name": "Jan Jansz", "role": "soldier", "location": "Norden", "country": "DE"}}, {"type": "Feature", "geometry": {"type": "Point", "coordinates": [8.76966, 55.33051]}, "properties": {"name": "Jeuriaen Jansz", "role": "soldier", "location": "Ribe", "country": "DK"}}, {"type": "Feature", "geometry": {"type": "Point", "coordinates": [8.80777, 53.07516]}, "properties": {"name": "Jan Gerritsz", "role": "sailor", "location": "Bremen", "country": "DE"}}, {"type": "Feature", "geometry": {"type": "Point", "coordinates": [-3.19648, 55.95206]}, "properties": {"name": "Willem Mil", "role": "soldier", "location": "Edinburgh", "country": "GB"}}, {"type": "Feature", "geometry": {"type": "Point", "coordinates": [4.63683, 52.38084]}, "properties": {"name": "Jacob Jacobss", "role": "sailor", "location": "Haarlem", "country": "DE"}}, {"type": "Feature", "geometry": {"type": "Point", "coordinates": [5.42244, 53.17477]}, "properties": {"name": "Wijbbe Janss", "role": "soldier", "location": "Harlingen", "country": "NL"}}, {"type": "Feature", "geometry": {"type": "Point", "coordinates": [8.80777, 53.07516]}, "properties": {"name": "Henrick Jacobsz", "role": "soldier", "location": "Bremen", "country": "DE"}}, {"type": "Feature", "geometry": {"type": "Point", "coordinates": [5.56749, 50.63373]}, "properties": {"name": "Guiljam Constant", "role": "sailor", "location": "Li\u00e8ge", "country": "DE"}}, {"type": "Feature", "geometry": {"type": "Point", "coordinates": [5.175, 51.47583]}, "properties": {"name": "Hans Holtsnecht", "role": "soldier", "location": "Diessen", "country": "NL"}}, {"type": "Feature", "geometry": {"type": "Point", "coordinates": [4.88969, 52.37403]}, "properties": {"name": "Salomon Auckama", "role": "sailor", "location": "Amsterdam", "country": "NL"}}, {"type": "Feature", "geometry": {"type": "Point", "coordinates": [9.25, 56.0]}, "properties": {"name": "Willem Bruijn", "role": "soldier", "location": "Jutland", "country": "DK"}}, {"type": "Feature", "geometry": {"type": "Point", "coordinates": [11.58218, 57.88699]}, "properties": {"name": "Lourens Martens", "role": "sailor", "location": "Marstrand", "country": "SE"}}, {"type": "Feature", "geometry": {"type": "Point", "coordinates": [4.63683, 52.38084]}, "properties": {"name": "Theunis Jansz", "role": "soldier", "location": "Haarlem", "country": "DE"}}, {"type": "Feature", "geometry": {"type": "Point", "coordinates": [4.74861, 52.63167]}, "properties": {"name": "Claes Jansz", "role": "soldier", "location": "Alkmaar", "country": "NL"}}, {"type": "Feature", "geometry": {"type": "Point", "coordinates": [5.80859, 53.20139]}, "properties": {"name": "Adam Fredricx", "role": "soldier", "location": "Leeuwarden", "country": "NL"}}, {"type": "Feature", "geometry": {"type": "Point", "coordinates": [5.80859, 53.20139]}, "properties": {"name": "Adam Fredricxsz", "role": "soldier", "location": "Leeuwarden", "country": "NL"}}, {"type": "Feature", "geometry": {"type": "Point", "coordinates": [8.80777, 53.07516]}, "properties": {"name": "Jan Jansz", "role": "soldier", "location": "Bremen", "country": "DE"}}, {"type": "Feature", "geometry": {"type": "Point", "coordinates": [-4.14305, 50.37153]}, "properties": {"name": "Lucas Witfenson", "role": "sailor", "location": "Plymouth", "country": "GB"}}, {"type": "Feature", "geometry": {"type": "Point", "coordinates": [11.58218, 57.88699]}, "properties": {"name": "Roeloff Janss", "role": "sailor", "location": "Marstrand", "country": "SE"}}, {"type": "Feature", "geometry": {"type": "Point", "coordinates": [5.75, 52.5]}, "properties": {"name": "Dirck Adriaens", "role": "soldier", "location": "Nederland (land)", "country": "NL"}}, {"type": "Feature", "geometry": {"type": "Point", "coordinates": [7.20639, 53.59552]}, "properties": {"name": "Fredric Harmens", "role": "sailor", "location": "Norden", "country": "DE"}}, {"type": "Feature", "geometry": {"type": "Point", "coordinates": [2.8, 49.63333]}, "properties": {"name": "Formijn Corde", "role": "soldier", "location": "Picardie", "country": "FR"}}, {"type": "Feature", "geometry": {"type": "Point", "coordinates": [4.88969, 52.37403]}, "properties": {"name": "Jan Davit", "role": "soldier", "location": "Amsterdam", "country": "NL"}}, {"type": "Feature", "geometry": {"type": "Point", "coordinates": [4.29861, 52.07667]}, "properties": {"name": "Gijsbert Jorissz", "role": "soldier", "location": "Den Haag", "country": "NL"}}, {"type": "Feature", "geometry": {"type": "Point", "coordinates": [-0.12574, 51.50853]}, "properties": {"name": "Willem Smidt", "role": "soldier", "location": "London", "country": "GB"}}, {"type": "Feature", "geometry": {"type": "Point", "coordinates": [-3.19648, 55.95206]}, "properties": {"name": "Alecxander Dunbaer", "role": "soldier", "location": "Edinburgh", "country": "GB"}}, {"type": "Feature", "geometry": {"type": "Point", "coordinates": [4.40346, 51.21989]}, "properties": {"name": "Frans Fransz", "role": "sailor", "location": "Antwerpen", "country": "BE"}}, {"type": "Feature", "geometry": {"type": "Point", "coordinates": [4.40346, 51.21989]}, "properties": {"name": "Frans Fransz", "role": "sailor", "location": "Antwerpen", "country": "BE"}}, {"type": "Feature", "geometry": {"type": "Point", "coordinates": [4.88969, 52.37403]}, "properties": {"name": "Frans Jasperssz Hasart", "role": "sailor", "location": "Amsterdam", "country": "NL"}}, {"type": "Feature", "geometry": {"type": "Point", "coordinates": [8.35357, 49.53414]}, "properties": {"name": "Pieter Meijer", "role": "soldier", "location": "Frankenthal", "country": "DE"}}, {"type": "Feature", "geometry": {"type": "Point", "coordinates": [10.01534, 53.57532]}, "properties": {"name": "Jan Hoffman", "role": "soldier", "location": "Hamburg", "country": "DE"}}, {"type": "Feature", "geometry": {"type": "Point", "coordinates": [4.96111, 52.09]}, "properties": {"name": "Ariaen Janss Keijser", "role": "soldier", "location": "Harmelen", "country": "NL"}}, {"type": "Feature", "geometry": {"type": "Point", "coordinates": [10.68729, 53.86893]}, "properties": {"name": "Andries Cleun", "role": "sailor", "location": "L\u00fcbeck", "country": "DE"}}, {"type": "Feature", "geometry": {"type": "Point", "coordinates": [5.54123, 53.18546]}, "properties": {"name": "Claes Jochumss", "role": "sailor", "location": "Franeker", "country": "NL"}}, {"type": "Feature", "geometry": {"type": "Point", "coordinates": [7.20778, 53.36745]}, "properties": {"name": "Hendrick Hendricxsz", "role": "sailor", "location": "Emden", "country": "DE"}}, {"type": "Feature", "geometry": {"type": "Point", "coordinates": [9.37465, 53.92253]}, "properties": {"name": "Boeije Somer", "role": "sailor", "location": "Wilster", "country": "DE"}}, {"type": "Feature", "geometry": {"type": "Point", "coordinates": [4.63683, 52.38084]}, "properties": {"name": "Pieter Henricxsz", "role": "soldier", "location": "Haarlem", "country": "DE"}}, {"type": "Feature", "geometry": {"type": "Point", "coordinates": [5.1625, 52.29583]}, "properties": {"name": "Claes Henricxs", "role": "soldier", "location": "Naarden", "country": "NL"}}, {"type": "Feature", "geometry": {"type": "Point", "coordinates": [5.65727, 53.2762]}, "properties": {"name": "Gerbrant Pijntges", "role": "sailor", "location": "Sint Annaparochie", "country": "NL"}}, {"type": "Feature", "geometry": {"type": "Point", "coordinates": [10.68729, 53.86893]}, "properties": {"name": "Andries Cleun", "role": "sailor", "location": "L\u00fcbeck", "country": "DE"}}, {"type": "Feature", "geometry": {"type": "Point", "coordinates": [-1.08271, 53.95763]}, "properties": {"name": "Evert Fransz", "role": "soldier", "location": "York", "country": "GB"}}, {"type": "Feature", "geometry": {"type": "Point", "coordinates": [4.47917, 51.9225]}, "properties": {"name": "Jan Jansz", "role": "soldier", "location": "Rotterdam", "country": "NL"}}, {"type": "Feature", "geometry": {"type": "Point", "coordinates": [5.02778, 52.27417]}, "properties": {"name": "Harpert Jans", "role": "soldier", "location": "Nigtevecht", "country": "NL"}}, {"type": "Feature", "geometry": {"type": "Point", "coordinates": [4.88969, 52.37403]}, "properties": {"name": "Jacob Adriaensz", "role": "soldier", "location": "Amsterdam", "country": "NL"}}, {"type": "Feature", "geometry": {"type": "Point", "coordinates": [4.88969, 52.37403]}, "properties": {"name": "Abraham Evertsz", "role": "soldier", "location": "Amsterdam", "country": "NL"}}, {"type": "Feature", "geometry": {"type": "Point", "coordinates": [7.39388, 51.4295]}, "properties": {"name": "Harmen Dreuge", "role": "sailor", "location": "Westfalen", "country": "DE"}}, {"type": "Feature", "geometry": {"type": "Point", "coordinates": [6.11037, 51.83583]}, "properties": {"name": "Samuel Smith", "role": "soldier", "location": "Schenkenschanz", "country": "DE"}}, {"type": "Feature", "geometry": {"type": "Point", "coordinates": [6.11037, 51.83583]}, "properties": {"name": "Samuel Smith", "role": "soldier", "location": "Schenkenschanz", "country": "DE"}}, {"type": "Feature", "geometry": {"type": "Point", "coordinates": [9.35623, 52.10397]}, "properties": {"name": "Harmen Dreuge", "role": "sailor", "location": "Hamelin", "country": "DE"}}, {"type": "Feature", "geometry": {"type": "Point", "coordinates": [4.63683, 52.38084]}, "properties": {"name": "Pieter Pieterssz", "role": "sailor", "location": "Haarlem", "country": "DE"}}, {"type": "Feature", "geometry": {"type": "Point", "coordinates": [11.14895, 54.47283]}, "properties": {"name": "Claes Tharrel", "role": "soldier", "location": "Fehmarn", "country": "DE"}}, {"type": "Feature", "geometry": {"type": "Point", "coordinates": [11.96679, 57.70716]}, "properties": {"name": "Willem Andriesz", "role": "sailor", "location": "G\u00f6teborg", "country": "SE"}}, {"type": "Feature", "geometry": {"type": "Point", "coordinates": [9.47629, 53.59337]}, "properties": {"name": "Johan Garber", "role": "soldier", "location": "Stade", "country": "DE"}}, {"type": "Feature", "geometry": {"type": "Point", "coordinates": [10.52673, 52.26594]}, "properties": {"name": "David Hanssz", "role": "soldier", "location": "Braunschweig", "country": "DE"}}, {"type": "Feature", "geometry": {"type": "Point", "coordinates": [10.4234469, 51.0834196]}, "properties": {"name": "Maurits Ernst", "role": "soldier", "location": "Duitsland (land)", "country": "DE"}}, {"type": "Feature", "geometry": {"type": "Point", "coordinates": [10.4234469, 51.0834196]}, "properties": {"name": "Michael Vogel", "role": "soldier", "location": "Duitsland (land)", "country": "DE"}}, {"type": "Feature", "geometry": {"type": "Point", "coordinates": [4.29861, 52.07667]}, "properties": {"name": "Willem Corssen", "role": "sailor", "location": "Den Haag", "country": "NL"}}, {"type": "Feature", "geometry": {"type": "Point", "coordinates": [10.21076, 56.15674]}, "properties": {"name": "Michel Erasmussz", "role": "sailor", "location": "Aarhus", "country": "DK"}}, {"type": "Feature", "geometry": {"type": "Point", "coordinates": [9.47629, 53.59337]}, "properties": {"name": "Claes Buntken", "role": "sailor", "location": "Stade", "country": "DE"}}, {"type": "Feature", "geometry": {"type": "Point", "coordinates": [4.88969, 52.37403]}, "properties": {"name": "Jan Luijcassz", "role": "sailor", "location": "Amsterdam", "country": "NL"}}, {"type": "Feature", "geometry": {"type": "Point", "coordinates": [4.88969, 52.37403]}, "properties": {"name": "Meijnert Henricxs Swart", "role": "soldier", "location": "Amsterdam", "country": "NL"}}, {"type": "Feature", "geometry": {"type": "Point", "coordinates": [4.62301, 52.34992]}, "properties": {"name": "Gerrit Dircxsz", "role": "soldier", "location": "Heemstede", "country": "NL"}}, {"type": "Feature", "geometry": {"type": "Point", "coordinates": [4.55694, 52.26]}, "properties": {"name": "Abraham Carelsz", "role": "soldier", "location": "Lisse", "country": "NL"}}, {"type": "Feature", "geometry": {"type": "Point", "coordinates": [14.42076, 50.08804]}, "properties": {"name": "Everhardt Hamermeijn", "role": "soldier", "location": "Prague", "country": "CZ"}}, {"type": "Feature", "geometry": {"type": "Point", "coordinates": [4.88969, 52.37403]}, "properties": {"name": "Carsten Jansz", "role": "soldier", "location": "Amsterdam", "country": "NL"}}, {"type": "Feature", "geometry": {"type": "Point", "coordinates": [6.39778, 51.76263]}, "properties": {"name": "Jan van den Sande", "role": "soldier", "location": "Rees", "country": "DE"}}, {"type": "Feature", "geometry": {"type": "Point", "coordinates": [4.67361, 51.81]}, "properties": {"name": "Cornelis Janssz", "role": "sailor", "location": "Dordrecht", "country": "NL"}}, {"type": "Feature", "geometry": {"type": "Point", "coordinates": [4.58194, 52.01167]}, "properties": {"name": "Jan Jacobsz", "role": "sailor", "location": "Zevenhuizen", "country": "NL"}}, {"type": "Feature", "geometry": {"type": "Point", "coordinates": [4.58194, 52.01167]}, "properties": {"name": "Cors Pietersz van Stolck", "role": "sailor", "location": "Zevenhuizen", "country": "NL"}}, {"type": "Feature", "geometry": {"type": "Point", "coordinates": [4.58194, 52.01167]}, "properties": {"name": "Govert Jacobss", "role": "sailor", "location": "Zevenhuizen", "country": "NL"}}, {"type": "Feature", "geometry": {"type": "Point", "coordinates": [4.58194, 52.01167]}, "properties": {"name": "Pieter Corneliss", "role": "sailor", "location": "Zevenhuizen", "country": "NL"}}, {"type": "Feature", "geometry": {"type": "Point", "coordinates": [9.43961, 54.78431]}, "properties": {"name": "Christiaen Asmusssz", "role": "soldier", "location": "Flensburg", "country": "DE"}}, {"type": "Feature", "geometry": {"type": "Point", "coordinates": [7.20778, 53.36745]}, "properties": {"name": "Roeliff Pietersz", "role": "soldier", "location": "Emden", "country": "DE"}}, {"type": "Feature", "geometry": {"type": "Point", "coordinates": [18.64637, 54.35205]}, "properties": {"name": "Daniel Heddinck", "role": "sailor", "location": "Gda\u0144sk", "country": "PL"}}, {"type": "Feature", "geometry": {"type": "Point", "coordinates": [14.42076, 50.08804]}, "properties": {"name": "Hans Henric", "role": "soldier", "location": "Prague", "country": "CZ"}}, {"type": "Feature", "geometry": {"type": "Point", "coordinates": [10.4234469, 51.0834196]}, "properties": {"name": "Andreas Uldrich", "role": "soldier", "location": "Duitsland (land)", "country": "DE"}}, {"type": "Feature", "geometry": {"type": "Point", "coordinates": [12.70789, 50.7823]}, "properties": {"name": "Bartholomeus Lessig", "role": "soldier", "location": "Oberlungwitz", "country": "DE"}}, {"type": "Feature", "geometry": {"type": "Point", "coordinates": [12.56553, 55.67594]}, "properties": {"name": "Jan Chier", "role": "soldier", "location": "Copenhagen", "country": "DK"}}, {"type": "Feature", "geometry": {"type": "Point", "coordinates": [7.89806, 53.57368]}, "properties": {"name": "Willem Henricss", "role": "sailor", "location": "Jever", "country": "DE"}}, {"type": "Feature", "geometry": {"type": "Point", "coordinates": [6.39778, 51.76263]}, "properties": {"name": "Hans Lammertsz", "role": "soldier", "location": "Rees", "country": "DE"}}, {"type": "Feature", "geometry": {"type": "Point", "coordinates": [4.47917, 51.9225]}, "properties": {"name": "Meijndert Doedensz", "role": "sailor", "location": "Rotterdam", "country": "NL"}}, {"type": "Feature", "geometry": {"type": "Point", "coordinates": [6.62037, 51.6669]}, "properties": {"name": "Harmen Troost", "role": "soldier", "location": "Wesel", "country": "DE"}}, {"type": "Feature", "geometry": {"type": "Point", "coordinates": [4.62301, 52.34992]}, "properties": {"name": "Gerrit Dircxsz", "role": "soldier", "location": "Heemstede", "country": "NL"}}, {"type": "Feature", "geometry": {"type": "Point", "coordinates": [6.12083, 52.7875]}, "properties": {"name": "Jan Overhagen", "role": "sailor", "location": "Steenwijk", "country": "NL"}}, {"type": "Feature", "geometry": {"type": "Point", "coordinates": [14.42076, 50.08804]}, "properties": {"name": "Isaac Pargementer", "role": "soldier", "location": "Prague", "country": "CZ"}}, {"type": "Feature", "geometry": {"type": "Point", "coordinates": [7.20778, 53.36745]}, "properties": {"name": "Roeliff Pietersz", "role": "soldier", "location": "Emden", "country": "DE"}}, {"type": "Feature", "geometry": {"type": "Point", "coordinates": [24.10589, 56.946]}, "properties": {"name": "Albert Evertssz", "role": "soldier", "location": "Riga", "country": "LV"}}, {"type": "Feature", "geometry": {"type": "Point", "coordinates": [4.64444, 52.21417]}, "properties": {"name": "Willem Dircxsz Keijser", "role": "soldier", "location": "Oude Wetering", "country": "NL"}}, {"type": "Feature", "geometry": {"type": "Point", "coordinates": [9.43961, 54.78431]}, "properties": {"name": "Hans Didericxssz", "role": "soldier", "location": "Flensburg", "country": "DE"}}, {"type": "Feature", "geometry": {"type": "Point", "coordinates": [8.80777, 53.07516]}, "properties": {"name": "Hidde Evertsz", "role": "sailor", "location": "Bremen", "country": "DE"}}, {"type": "Feature", "geometry": {"type": "Point", "coordinates": [9.43961, 54.78431]}, "properties": {"name": "Nijs Pieterssz", "role": "soldier", "location": "Flensburg", "country": "DE"}}, {"type": "Feature", "geometry": {"type": "Point", "coordinates": [9.43961, 54.78431]},